{
  "version": 1,
  "city": "State College, PA",
  "attribution": "Locations © OpenStreetMap contributors (ODbL) and Wikidata (CC0). Satellite imagery © Esri / Maxar.",
  "locations": [
    {
      "id": "3-dots",
      "name": "3 Dots",
      "lat": 40.794264,
      "lng": -77.859384,
      "category": "museum",
      "clue": null,
      "photoUrl": null,
      "source": "overpass",
      "attribution": "OpenStreetMap ODbL"
    },
    {
      "id": "7-brew",
      "name": "7 Brew",
      "lat": 40.785595,
      "lng": -77.833072,
      "category": "cafe",
      "clue": null,
      "photoUrl": null,
      "source": "overpass",
      "attribution": "OpenStreetMap ODbL"
    },
    {
      "id": "as-pub",
      "name": "A's Pub",
      "lat": 40.793884,
      "lng": -77.86115,
      "category": "bar",
      "clue": null,
      "photoUrl": null,
      "source": "overpass",
      "attribution": "OpenStreetMap ODbL"
    },
    {
      "id": "adams-apple",
      "name": "Adam's Apple",
      "lat": 40.795382,
      "lng": -77.859446,
      "category": "bar",
      "clue": null,
      "photoUrl": null,
      "source": "overpass",
      "attribution": "OpenStreetMap ODbL"
    },
    {
      "id": "air-quality-learning-and-demonstration-center",
      "name": "Air Quality Learning and Demonstration Center",
      "lat": 40.811072,
      "lng": -77.877083,
      "category": "attraction",
      "clue": null,
      "photoUrl": null,
      "source": "overpass",
      "attribution": "OpenStreetMap ODbL"
    },
    {
      "id": "allen-street-grill",
      "name": "Allen Street Grill",
      "lat": 40.794226,
      "lng": -77.861651,
      "category": "restaurant",
      "clue": null,
      "photoUrl": null,
      "source": "overpass",
      "attribution": "OpenStreetMap ODbL"
    },
    {
      "id": "armsby-respiration-calorimeter-museum",
      "name": "Armsby Respiration Calorimeter Museum",
      "lat": 40.800415,
      "lng": -77.864556,
      "category": "museum",
      "clue": null,
      "photoUrl": null,
      "source": "overpass",
      "attribution": "OpenStreetMap ODbL"
    },
    {
      "id": "art-alley",
      "name": "Art Alley",
      "lat": 40.798208,
      "lng": -77.861292,
      "category": "museum",
      "clue": null,
      "photoUrl": null,
      "source": "overpass",
      "attribution": "OpenStreetMap ODbL"
    },
    {
      "id": "atherton",
      "name": "Atherton",
      "lat": 40.796669,
      "lng": -77.863846,
      "category": "landmark",
      "clue": null,
      "photoUrl": null,
      "source": "overpass",
      "attribution": "OpenStreetMap ODbL"
    },
    {
      "id": "atom-first-seen",
      "name": "Atom First \"Seen\"",
      "lat": 40.798727,
      "lng": -77.861811,
      "category": "landmark",
      "clue": null,
      "photoUrl": null,
      "source": "overpass",
      "attribution": "OpenStreetMap ODbL"
    },
    {
      "id": "bagel-crust-beaver",
      "name": "Bagel Crust - Beaver",
      "lat": 40.792168,
      "lng": -77.862213,
      "category": "cafe",
      "clue": null,
      "photoUrl": null,
      "source": "overpass",
      "attribution": "OpenStreetMap ODbL"
    },
    {
      "id": "beaver-stadium",
      "name": "Beaver Stadium",
      "lat": 40.812081,
      "lng": -77.856074,
      "category": "venue",
      "clue": null,
      "photoUrl": null,
      "source": "overpass",
      "attribution": "OpenStreetMap ODbL; Wikidata CC0"
    },
    {
      "id": "big-bowl-noodle-house",
      "name": "Big Bowl Noodle House",
      "lat": 40.798065,
      "lng": -77.85654,
      "category": "restaurant",
      "clue": null,
      "photoUrl": null,
      "source": "overpass",
      "attribution": "OpenStreetMap ODbL"
    },
    {
      "id": "bill-pickles-tap-room",
      "name": "Bill Pickle's Tap Room",
      "lat": 40.794126,
      "lng": -77.861413,
      "category": "bar",
      "clue": null,
      "photoUrl": null,
      "source": "overpass",
      "attribution": "OpenStreetMap ODbL"
    },
    {
      "id": "blue-course",
      "name": "Blue Course",
      "lat": 40.786393,
      "lng": -77.883662,
      "category": "golf_course",
      "clue": null,
      "photoUrl": null,
      "source": "overpass",
      "attribution": "OpenStreetMap ODbL"
    },
    {
      "id": "brothers-bar-grill",
      "name": "Brothers Bar & Grill",
      "lat": 40.793637,
      "lng": -77.860783,
      "category": "bar",
      "clue": null,
      "photoUrl": null,
      "source": "overpass",
      "attribution": "OpenStreetMap ODbL"
    },
    {
      "id": "brothers-pizza",
      "name": "Brothers Pizza",
      "lat": 40.787464,
      "lng": -77.856365,
      "category": "restaurant",
      "clue": null,
      "photoUrl": null,
      "source": "overpass",
      "attribution": "OpenStreetMap ODbL"
    },
    {
      "id": "bryce-jordan-center",
      "name": "Bryce Jordan Center",
      "lat": 40.808583,
      "lng": -77.855449,
      "category": "venue",
      "clue": null,
      "photoUrl": null,
      "source": "overpass",
      "attribution": "OpenStreetMap ODbL; Wikidata CC0"
    },
    {
      "id": "cafe-210-west",
      "name": "Cafe 210 West",
      "lat": 40.793177,
      "lng": -77.863004,
      "category": "bar",
      "clue": null,
      "photoUrl": null,
      "source": "overpass",
      "attribution": "OpenStreetMap ODbL"
    },
    {
      "id": "cafe-alina",
      "name": "Cafe Alina",
      "lat": 40.797985,
      "lng": -77.855861,
      "category": "restaurant",
      "clue": null,
      "photoUrl": null,
      "source": "overpass",
      "attribution": "OpenStreetMap ODbL"
    },
    {
      "id": "cafe-wow",
      "name": "Cafe Wow",
      "lat": 40.795944,
      "lng": -77.859076,
      "category": "cafe",
      "clue": null,
      "photoUrl": null,
      "source": "overpass",
      "attribution": "OpenStreetMap ODbL"
    },
    {
      "id": "camelot",
      "name": "Camelot",
      "lat": 40.789077,
      "lng": -77.857692,
      "category": "landmark",
      "clue": null,
      "photoUrl": null,
      "source": "overpass",
      "attribution": "OpenStreetMap ODbL; Wikidata CC0"
    },
    {
      "id": "centre-furnace",
      "name": "Centre Furnace",
      "lat": 40.805241,
      "lng": -77.843469,
      "category": "landmark",
      "clue": null,
      "photoUrl": null,
      "source": "overpass",
      "attribution": "OpenStreetMap ODbL; Wikidata CC0"
    },
    {
      "id": "centre-furnace-mansion",
      "name": "Centre Furnace Mansion",
      "lat": 40.806671,
      "lng": -77.842145,
      "category": "museum",
      "clue": null,
      "photoUrl": null,
      "source": "overpass",
      "attribution": "OpenStreetMap ODbL; Wikidata CC0"
    },
    {
      "id": "centre-hills-country-club",
      "name": "Centre Hills Country Club",
      "lat": 40.793,
      "lng": -77.821986,
      "category": "golf_course",
      "clue": null,
      "photoUrl": null,
      "source": "overpass",
      "attribution": "OpenStreetMap ODbL"
    },
    {
      "id": "champs-downtown",
      "name": "Champ's Downtown",
      "lat": 40.793754,
      "lng": -77.860549,
      "category": "bar",
      "clue": null,
      "photoUrl": null,
      "source": "overpass",
      "attribution": "OpenStreetMap ODbL"
    },
    {
      "id": "chew-chew-bun",
      "name": "Chew Chew Bun",
      "lat": 40.79382,
      "lng": -77.859971,
      "category": "cafe",
      "clue": null,
      "photoUrl": null,
      "source": "overpass",
      "attribution": "OpenStreetMap ODbL"
    },
    {
      "id": "chumleys",
      "name": "Chumley's",
      "lat": 40.794124,
      "lng": -77.861772,
      "category": "bar",
      "clue": null,
      "photoUrl": null,
      "source": "overpass",
      "attribution": "OpenStreetMap ODbL"
    },
    {
      "id": "cozy-thai",
      "name": "Cozy Thai",
      "lat": 40.7927,
      "lng": -77.859433,
      "category": "restaurant",
      "clue": null,
      "photoUrl": null,
      "source": "overpass",
      "attribution": "OpenStreetMap ODbL"
    },
    {
      "id": "dp-dough",
      "name": "D.P. Dough",
      "lat": 40.797099,
      "lng": -77.855848,
      "category": "restaurant",
      "clue": null,
      "photoUrl": null,
      "source": "overpass",
      "attribution": "OpenStreetMap ODbL"
    },
    {
      "id": "dagu-rice-noodle",
      "name": "Dagu Rice Noodle",
      "lat": 40.794992,
      "lng": -77.860626,
      "category": "restaurant",
      "clue": null,
      "photoUrl": null,
      "source": "overpass",
      "attribution": "OpenStreetMap ODbL"
    },
    {
      "id": "discovery-space",
      "name": "Discovery Space",
      "lat": 40.802018,
      "lng": -77.882318,
      "category": "museum",
      "clue": null,
      "photoUrl": null,
      "source": "overpass",
      "attribution": "OpenStreetMap ODbL"
    },
    {
      "id": "doggies-pub",
      "name": "Doggie's Pub",
      "lat": 40.795044,
      "lng": -77.860254,
      "category": "bar",
      "clue": null,
      "photoUrl": null,
      "source": "overpass",
      "attribution": "OpenStreetMap ODbL"
    },
    {
      "id": "douglas-albert-gallery",
      "name": "Douglas Albert Gallery",
      "lat": 40.795599,
      "lng": -77.859452,
      "category": "museum",
      "clue": null,
      "photoUrl": null,
      "source": "overpass",
      "attribution": "OpenStreetMap ODbL"
    },
    {
      "id": "edwin-w-zoller-gallery",
      "name": "Edwin W. Zoller Gallery",
      "lat": 40.8009,
      "lng": -77.865264,
      "category": "museum",
      "clue": null,
      "photoUrl": null,
      "source": "overpass",
      "attribution": "OpenStreetMap ODbL"
    },
    {
      "id": "ems-museum-and-art-gallery",
      "name": "EMS Museum and Art Gallery",
      "lat": 40.794143,
      "lng": -77.865447,
      "category": "museum",
      "clue": null,
      "photoUrl": null,
      "source": "overpass",
      "attribution": "OpenStreetMap ODbL"
    },
    {
      "id": "faculty-cottages",
      "name": "Faculty Cottages",
      "lat": 40.799813,
      "lng": -77.861772,
      "category": "landmark",
      "clue": null,
      "photoUrl": null,
      "source": "overpass",
      "attribution": "OpenStreetMap ODbL"
    },
    {
      "id": "fiddlehead",
      "name": "Fiddlehead",
      "lat": 40.793592,
      "lng": -77.862498,
      "category": "restaurant",
      "clue": null,
      "photoUrl": null,
      "source": "overpass",
      "attribution": "OpenStreetMap ODbL"
    },
    {
      "id": "general-james-a-beaver-memorial",
      "name": "General James A. Beaver Memorial",
      "lat": 40.8123,
      "lng": -77.85415,
      "category": "landmark",
      "clue": null,
      "photoUrl": null,
      "source": "overpass",
      "attribution": "OpenStreetMap ODbL"
    },
    {
      "id": "giuseppes-pizzeria",
      "name": "Giuseppe's Pizzeria",
      "lat": 40.795356,
      "lng": -77.86016,
      "category": "restaurant",
      "clue": null,
      "photoUrl": null,
      "source": "overpass",
      "attribution": "OpenStreetMap ODbL"
    },
    {
      "id": "good-day-cafe",
      "name": "Good Day Cafe",
      "lat": 40.78678,
      "lng": -77.857337,
      "category": "cafe",
      "clue": null,
      "photoUrl": null,
      "source": "overpass",
      "attribution": "OpenStreetMap ODbL"
    },
    {
      "id": "highlands-historic-district",
      "name": "Highlands Historic District",
      "lat": 40.793002,
      "lng": -77.853149,
      "category": "landmark",
      "clue": null,
      "photoUrl": null,
      "source": "overpass",
      "attribution": "OpenStreetMap ODbL; Wikidata CC0"
    },
    {
      "id": "holmes-foster-park",
      "name": "Holmes-Foster Park",
      "lat": 40.783163,
      "lng": -77.864831,
      "category": "park",
      "clue": null,
      "photoUrl": null,
      "source": "overpass",
      "attribution": "OpenStreetMap ODbL; Wikidata CC0"
    },
    {
      "id": "india-pavilion",
      "name": "India Pavilion",
      "lat": 40.795415,
      "lng": -77.859132,
      "category": "restaurant",
      "clue": null,
      "photoUrl": null,
      "source": "overpass",
      "attribution": "OpenStreetMap ODbL"
    },
    {
      "id": "irvings-bagels",
      "name": "Irving's Bagels",
      "lat": 40.794556,
      "lng": -77.861226,
      "category": "cafe",
      "clue": null,
      "photoUrl": null,
      "source": "overpass",
      "attribution": "OpenStreetMap ODbL"
    },
    {
      "id": "john-i-thompson-grain-elevator-and-coal-sheds",
      "name": "John I. Thompson Grain Elevator and Coal Sheds",
      "lat": 40.810529,
      "lng": -77.817242,
      "category": "landmark",
      "clue": null,
      "photoUrl": null,
      "source": "overpass",
      "attribution": "OpenStreetMap ODbL"
    },
    {
      "id": "kokoro",
      "name": "Kokoro",
      "lat": 40.797444,
      "lng": -77.856038,
      "category": "restaurant",
      "clue": null,
      "photoUrl": null,
      "source": "overpass",
      "attribution": "OpenStreetMap ODbL"
    },
    {
      "id": "lion-shrine",
      "name": "Lion Shrine",
      "lat": 40.796805,
      "lng": -77.868936,
      "category": "attraction",
      "clue": null,
      "photoUrl": null,
      "source": "overpass",
      "attribution": "OpenStreetMap ODbL; Wikidata CC0"
    },
    {
      "id": "lions-den",
      "name": "Lion's Den",
      "lat": 40.797596,
      "lng": -77.856619,
      "category": "bar",
      "clue": null,
      "photoUrl": null,
      "source": "overpass",
      "attribution": "OpenStreetMap ODbL"
    },
    {
      "id": "little-szechuan",
      "name": "Little Szechuan",
      "lat": 40.792713,
      "lng": -77.863297,
      "category": "restaurant",
      "clue": null,
      "photoUrl": null,
      "source": "overpass",
      "attribution": "OpenStreetMap ODbL"
    },
    {
      "id": "local-whiskey",
      "name": "Local Whiskey",
      "lat": 40.793677,
      "lng": -77.860156,
      "category": "bar",
      "clue": null,
      "photoUrl": null,
      "source": "overpass",
      "attribution": "OpenStreetMap ODbL"
    },
    {
      "id": "lt-michael-p-murphy-penn-state-veterans-plaza",
      "name": "Lt. Michael P. Murphy Penn State Veterans Plaza",
      "lat": 40.797333,
      "lng": -77.862884,
      "category": "landmark",
      "clue": null,
      "photoUrl": null,
      "source": "overpass",
      "attribution": "OpenStreetMap ODbL"
    },
    {
      "id": "masala-palace",
      "name": "Masala Palace",
      "lat": 40.793727,
      "lng": -77.85969,
      "category": "restaurant",
      "clue": null,
      "photoUrl": null,
      "source": "overpass",
      "attribution": "OpenStreetMap ODbL"
    },
    {
      "id": "mr-wish",
      "name": "Mr. Wish",
      "lat": 40.796978,
      "lng": -77.858037,
      "category": "cafe",
      "clue": null,
      "photoUrl": null,
      "source": "overpass",
      "attribution": "OpenStreetMap ODbL"
    },
    {
      "id": "penn-kebab",
      "name": "Penn Kebab",
      "lat": 40.798107,
      "lng": -77.856481,
      "category": "restaurant",
      "clue": null,
      "photoUrl": null,
      "source": "overpass",
      "attribution": "OpenStreetMap ODbL"
    },
    {
      "id": "penn-steaks",
      "name": "Penn Steaks",
      "lat": 40.795046,
      "lng": -77.859928,
      "category": "restaurant",
      "clue": null,
      "photoUrl": null,
      "source": "overpass",
      "attribution": "OpenStreetMap ODbL"
    },
    {
      "id": "phyrst",
      "name": "Phyrst",
      "lat": 40.793749,
      "lng": -77.860064,
      "category": "bar",
      "clue": null,
      "photoUrl": null,
      "source": "overpass",
      "attribution": "OpenStreetMap ODbL"
    },
    {
      "id": "pita-cabana",
      "name": "Pita Cabana",
      "lat": 40.796841,
      "lng": -77.857243,
      "category": "restaurant",
      "clue": null,
      "photoUrl": null,
      "source": "overpass",
      "attribution": "OpenStreetMap ODbL"
    },
    {
      "id": "rothrock-coffee",
      "name": "Rothrock Coffee",
      "lat": 40.784399,
      "lng": -77.834546,
      "category": "cafe",
      "clue": null,
      "photoUrl": null,
      "source": "overpass",
      "attribution": "OpenStreetMap ODbL"
    },
    {
      "id": "sharkies-bar",
      "name": "Sharkies Bar",
      "lat": 40.798143,
      "lng": -77.855915,
      "category": "bar",
      "clue": null,
      "photoUrl": null,
      "source": "overpass",
      "attribution": "OpenStreetMap ODbL"
    },
    {
      "id": "sichuan-house",
      "name": "Sichuan House",
      "lat": 40.793659,
      "lng": -77.860425,
      "category": "restaurant",
      "clue": null,
      "photoUrl": null,
      "source": "overpass",
      "attribution": "OpenStreetMap ODbL"
    },
    {
      "id": "smash-falafel",
      "name": "Smash Falafel",
      "lat": 40.796834,
      "lng": -77.857257,
      "category": "restaurant",
      "clue": null,
      "photoUrl": null,
      "source": "overpass",
      "attribution": "OpenStreetMap ODbL"
    },
    {
      "id": "snap-custom-pizza",
      "name": "Snap Custom Pizza",
      "lat": 40.793643,
      "lng": -77.86242,
      "category": "restaurant",
      "clue": null,
      "photoUrl": null,
      "source": "overpass",
      "attribution": "OpenStreetMap ODbL"
    },
    {
      "id": "stage-west",
      "name": "Stage West",
      "lat": 40.798145,
      "lng": -77.856373,
      "category": "bar",
      "clue": null,
      "photoUrl": null,
      "source": "overpass",
      "attribution": "OpenStreetMap ODbL"
    },
    {
      "id": "tadashi-japanese-restaurant",
      "name": "Tadashi Japanese Restaurant",
      "lat": 40.793309,
      "lng": -77.862889,
      "category": "restaurant",
      "clue": null,
      "photoUrl": null,
      "source": "overpass",
      "attribution": "OpenStreetMap ODbL"
    },
    {
      "id": "teafe",
      "name": "Teafe",
      "lat": 40.810405,
      "lng": -77.895015,
      "category": "cafe",
      "clue": null,
      "photoUrl": null,
      "source": "overpass",
      "attribution": "OpenStreetMap ODbL"
    },
    {
      "id": "the-brewery",
      "name": "The Brewery",
      "lat": 40.794939,
      "lng": -77.858655,
      "category": "bar",
      "clue": null,
      "photoUrl": null,
      "source": "overpass",
      "attribution": "OpenStreetMap ODbL"
    },
    {
      "id": "the-cheese-shoppe",
      "name": "The Cheese Shoppe",
      "lat": 40.795483,
      "lng": -77.85903,
      "category": "cafe",
      "clue": null,
      "photoUrl": null,
      "source": "overpass",
      "attribution": "OpenStreetMap ODbL"
    },
    {
      "id": "the-corner-room",
      "name": "The Corner Room",
      "lat": 40.794279,
      "lng": -77.861613,
      "category": "restaurant",
      "clue": null,
      "photoUrl": null,
      "source": "overpass",
      "attribution": "OpenStreetMap ODbL"
    },
    {
      "id": "the-press-cider-and-craft-beverage-tap-house",
      "name": "The Press Cider and Craft Beverage Tap House",
      "lat": 40.797304,
      "lng": -77.857317,
      "category": "bar",
      "clue": null,
      "photoUrl": null,
      "source": "overpass",
      "attribution": "OpenStreetMap ODbL"
    },
    {
      "id": "the-shandygaff",
      "name": "The Shandygaff",
      "lat": 40.795325,
      "lng": -77.859564,
      "category": "bar",
      "clue": null,
      "photoUrl": null,
      "source": "overpass",
      "attribution": "OpenStreetMap ODbL"
    },
    {
      "id": "the-whale-tea",
      "name": "The Whale Tea",
      "lat": 40.795359,
      "lng": -77.857493,
      "category": "cafe",
      "clue": null,
      "photoUrl": null,
      "source": "overpass",
      "attribution": "OpenStreetMap ODbL"
    },
    {
      "id": "toasted-bagel-cafe",
      "name": "Toasted Bagel Cafe",
      "lat": 40.783337,
      "lng": -77.852931,
      "category": "cafe",
      "clue": null,
      "photoUrl": null,
      "source": "overpass",
      "attribution": "OpenStreetMap ODbL"
    },
    {
      "id": "uncle-chens",
      "name": "Uncle Chens",
      "lat": 40.7976,
      "lng": -77.855157,
      "category": "restaurant",
      "clue": null,
      "photoUrl": null,
      "source": "overpass",
      "attribution": "OpenStreetMap ODbL"
    },
    {
      "id": "vibe-coffee-co",
      "name": "Vibe Coffee Co.",
      "lat": 40.790776,
      "lng": -77.86407,
      "category": "cafe",
      "clue": null,
      "photoUrl": null,
      "source": "overpass",
      "attribution": "OpenStreetMap ODbL"
    },
    {
      "id": "websters-bookstore-cafe",
      "name": "Webster's Bookstore Cafe",
      "lat": 40.794071,
      "lng": -77.859641,
      "category": "cafe",
      "clue": null,
      "photoUrl": null,
      "source": "overpass",
      "attribution": "OpenStreetMap ODbL"
    },
    {
      "id": "whiskers",
      "name": "Whiskers",
      "lat": 40.796838,
      "lng": -77.87094,
      "category": "bar",
      "clue": null,
      "photoUrl": null,
      "source": "overpass",
      "attribution": "OpenStreetMap ODbL"
    },
    {
      "id": "wings-over-happy-valley",
      "name": "Wings Over Happy Valley",
      "lat": 40.787354,
      "lng": -77.856512,
      "category": "restaurant",
      "clue": null,
      "photoUrl": null,
      "source": "overpass",
      "attribution": "OpenStreetMap ODbL"
    },
    {
      "id": "yummy-cafe",
      "name": "Yummy Cafe",
      "lat": 40.796659,
      "lng": -77.857508,
      "category": "restaurant",
      "clue": null,
      "photoUrl": null,
      "source": "overpass",
      "attribution": "OpenStreetMap ODbL"
    },
    {
      "id": "zenos-pub",
      "name": "Zeno's Pub",
      "lat": 40.794215,
      "lng": -77.861528,
      "category": "bar",
      "clue": null,
      "photoUrl": null,
      "source": "overpass",
      "attribution": "OpenStreetMap ODbL"
    }
  ]
}
