{
  "version": 1,
  "city": "State College, PA",
  "attribution": "Locations © OpenStreetMap contributors (ODbL) and Wikidata (CC0). Satellite imagery © Esri / Maxar.",
  "locations": [
    {
      "id": "3-dots",
      "name": "3 Dots",
      "lat": 40.794264,
      "lng": -77.859384,
      "category": "museum",
      "difficulty": "medium",
      "inPlay": true,
      "fameScore": 38,
      "clue": null,
      "photoUrl": null,
      "source": "overpass",
      "attribution": "OpenStreetMap ODbL",
      "lastVerified": "2026-06-16"
    },
    {
      "id": "abba-java-coffeehouse",
      "name": "Abba Java Coffeehouse",
      "lat": 40.796237,
      "lng": -77.858331,
      "category": "cafe",
      "difficulty": "medium",
      "inPlay": true,
      "fameScore": 35,
      "clue": null,
      "photoUrl": null,
      "source": "overpass",
      "attribution": "OpenStreetMap ODbL",
      "lastVerified": "2026-06-16"
    },
    {
      "id": "adams-apple",
      "name": "Adam's Apple",
      "lat": 40.795382,
      "lng": -77.859446,
      "category": "bar",
      "difficulty": "easy",
      "inPlay": true,
      "fameScore": 52,
      "clue": null,
      "photoUrl": null,
      "source": "overpass",
      "attribution": "OpenStreetMap ODbL",
      "lastVerified": "2026-06-16"
    },
    {
      "id": "agape-coffee-house",
      "name": "Agape Coffee House",
      "lat": 40.792652,
      "lng": -77.862853,
      "category": "cafe",
      "difficulty": "hard",
      "inPlay": true,
      "fameScore": 25,
      "clue": null,
      "photoUrl": null,
      "source": "overpass",
      "attribution": "OpenStreetMap ODbL",
      "lastVerified": "2026-06-16"
    },
    {
      "id": "allen-street-grill",
      "name": "Allen Street Grill",
      "lat": 40.794226,
      "lng": -77.861651,
      "category": "restaurant",
      "difficulty": "easy",
      "inPlay": true,
      "fameScore": 62,
      "clue": null,
      "photoUrl": null,
      "source": "overpass",
      "attribution": "OpenStreetMap ODbL",
      "lastVerified": "2026-06-16"
    },
    {
      "id": "allen-street-pizza",
      "name": "Allen Street Pizza",
      "lat": 40.793751,
      "lng": -77.860961,
      "category": "restaurant",
      "difficulty": "medium",
      "inPlay": true,
      "fameScore": 38,
      "clue": null,
      "photoUrl": null,
      "source": "overpass",
      "attribution": "OpenStreetMap ODbL",
      "lastVerified": "2026-06-16"
    },
    {
      "id": "alumni-garden",
      "name": "Alumni Garden",
      "lat": 40.79471,
      "lng": -77.863417,
      "category": "park",
      "difficulty": "medium",
      "inPlay": true,
      "fameScore": 35,
      "clue": null,
      "photoUrl": null,
      "source": "overpass",
      "attribution": "OpenStreetMap ODbL",
      "lastVerified": "2026-06-16",
      "polygon": [
        [40.79504, -77.86329],
        [40.79509, -77.86336],
        [40.79505, -77.86354],
        [40.79472, -77.86395],
        [40.79458, -77.86395],
        [40.79438, -77.8637],
        [40.79449, -77.86349],
        [40.79449, -77.86329],
        [40.79432, -77.86321],
        [40.79468, -77.86288],
        [40.79504, -77.86328]
      ]
    },
    {
      "id": "antifragile-brewing-co",
      "name": "Antifragile Brewing Co",
      "lat": 40.796703,
      "lng": -77.857438,
      "category": "restaurant",
      "difficulty": "medium",
      "inPlay": true,
      "fameScore": 42,
      "clue": null,
      "photoUrl": null,
      "source": "overpass",
      "attribution": "OpenStreetMap ODbL",
      "lastVerified": "2026-06-16"
    },
    {
      "id": "armsby-respiration-calorimeter-museum",
      "name": "Armsby Respiration Calorimeter Museum",
      "lat": 40.800415,
      "lng": -77.864556,
      "category": "museum",
      "inPlay": false,
      "fameScore": 14,
      "clue": null,
      "photoUrl": null,
      "source": "overpass",
      "attribution": "OpenStreetMap ODbL",
      "lastVerified": "2026-06-17"
    },
    {
      "id": "as-pub",
      "name": "A's Pub",
      "lat": 40.793884,
      "lng": -77.86115,
      "category": "bar",
      "difficulty": "medium",
      "inPlay": true,
      "fameScore": 42,
      "clue": null,
      "photoUrl": null,
      "source": "overpass",
      "attribution": "OpenStreetMap ODbL",
      "lastVerified": "2026-06-16"
    },
    {
      "id": "atom-first-seen",
      "name": "Atom First \"Seen\"",
      "lat": 40.798727,
      "lng": -77.861811,
      "category": "landmark",
      "inPlay": false,
      "fameScore": 20,
      "clue": null,
      "photoUrl": null,
      "source": "overpass",
      "attribution": "OpenStreetMap ODbL",
      "lastVerified": "2026-06-17"
    },
    {
      "id": "bagel-crust-beaver",
      "name": "Bagel Crust - Beaver",
      "lat": 40.792168,
      "lng": -77.862213,
      "category": "cafe",
      "difficulty": "easy",
      "inPlay": true,
      "fameScore": 48,
      "clue": null,
      "photoUrl": null,
      "source": "overpass",
      "attribution": "OpenStreetMap ODbL",
      "lastVerified": "2026-06-16"
    },
    {
      "id": "bagel-crust-calder",
      "name": "Bagel Crust - Calder",
      "lat": 40.796797,
      "lng": -77.857303,
      "category": "cafe",
      "difficulty": "easy",
      "inPlay": true,
      "fameScore": 55,
      "clue": null,
      "photoUrl": null,
      "source": "overpass",
      "attribution": "OpenStreetMap ODbL",
      "lastVerified": "2026-06-16"
    },
    {
      "id": "beaver-stadium",
      "name": "Beaver Stadium",
      "lat": 40.812081,
      "lng": -77.856074,
      "category": "venue",
      "difficulty": "easy",
      "inPlay": true,
      "fameScore": 98,
      "clue": null,
      "photoUrl": null,
      "source": "overpass",
      "attribution": "OpenStreetMap ODbL; Wikidata CC0",
      "lastVerified": "2026-06-16"
    },
    {
      "id": "bee-and-pollinator-garden",
      "name": "Bee and Pollinator Garden",
      "lat": 40.805059,
      "lng": -77.869156,
      "category": "park",
      "difficulty": "hard",
      "inPlay": true,
      "fameScore": 22,
      "clue": null,
      "photoUrl": null,
      "source": "overpass",
      "attribution": "OpenStreetMap ODbL",
      "lastVerified": "2026-06-16",
      "polygon": [
        [40.80575, -77.86964],
        [40.80565, -77.86979],
        [40.80522, -77.8699],
        [40.80499, -77.87027],
        [40.80437, -77.86859],
        [40.80512, -77.86804],
        [40.80537, -77.86844],
        [40.80552, -77.86819],
        [40.8056, -77.86858],
        [40.80537, -77.86908]
      ]
    },
    {
      "id": "beijing-osaka",
      "name": "Beijing & Osaka",
      "lat": 40.798854,
      "lng": -77.855557,
      "category": "restaurant",
      "difficulty": "medium",
      "inPlay": true,
      "fameScore": 35,
      "clue": null,
      "photoUrl": null,
      "source": "overpass",
      "attribution": "OpenStreetMap ODbL",
      "lastVerified": "2026-06-16"
    },
    {
      "id": "benny-leones",
      "name": "Benny Leone’s",
      "lat": 40.793394,
      "lng": -77.86237,
      "category": "restaurant",
      "inPlay": false,
      "fameScore": 20,
      "clue": null,
      "photoUrl": null,
      "source": "overpass",
      "attribution": "OpenStreetMap ODbL",
      "lastVerified": "2026-06-17"
    },
    {
      "id": "big-bowl-noodle-house",
      "name": "Big Bowl Noodle House",
      "lat": 40.798065,
      "lng": -77.85654,
      "category": "restaurant",
      "difficulty": "easy",
      "inPlay": true,
      "fameScore": 52,
      "clue": null,
      "photoUrl": null,
      "source": "overpass",
      "attribution": "OpenStreetMap ODbL",
      "lastVerified": "2026-06-16"
    },
    {
      "id": "big-deans-hot-chicken",
      "name": "Big Dean’s Hot Chicken",
      "lat": 40.793279,
      "lng": -77.862932,
      "category": "restaurant",
      "difficulty": "medium",
      "inPlay": true,
      "fameScore": 38,
      "clue": null,
      "photoUrl": null,
      "source": "overpass",
      "attribution": "OpenStreetMap ODbL",
      "lastVerified": "2026-06-16"
    },
    {
      "id": "bill-pickles-tap-room",
      "name": "Bill Pickle's Tap Room",
      "lat": 40.794126,
      "lng": -77.861413,
      "category": "bar",
      "difficulty": "easy",
      "inPlay": true,
      "fameScore": 65,
      "clue": null,
      "photoUrl": null,
      "source": "overpass",
      "attribution": "OpenStreetMap ODbL",
      "lastVerified": "2026-06-16"
    },
    {
      "id": "bistrozine",
      "name": "Bistrozine",
      "lat": 40.797862,
      "lng": -77.856017,
      "category": "restaurant",
      "difficulty": "medium",
      "inPlay": true,
      "fameScore": 42,
      "clue": null,
      "photoUrl": null,
      "source": "overpass",
      "attribution": "OpenStreetMap ODbL",
      "lastVerified": "2026-06-16"
    },
    {
      "id": "blue-band-practice-im-fields",
      "name": "Blue Band Practice IM Fields",
      "lat": 40.810321,
      "lng": -77.864746,
      "category": "park",
      "difficulty": "hard",
      "inPlay": true,
      "fameScore": 28,
      "clue": null,
      "photoUrl": null,
      "source": "overpass",
      "attribution": "OpenStreetMap ODbL",
      "lastVerified": "2026-06-16",
      "polygon": [
        [40.80947, -77.86404],
        [40.8105, -77.86342],
        [40.81117, -77.86551],
        [40.81017, -77.86608]
      ]
    },
    {
      "id": "blue-course",
      "name": "Blue Course",
      "lat": 40.786393,
      "lng": -77.883662,
      "category": "golf_course",
      "difficulty": "easy",
      "inPlay": true,
      "fameScore": 55,
      "clue": null,
      "photoUrl": null,
      "source": "overpass",
      "attribution": "OpenStreetMap ODbL",
      "lastVerified": "2026-06-16",
      "polygon": [
        [40.78502, -77.87671],
        [40.78528, -77.87697],
        [40.78549, -77.87754],
        [40.78544, -77.87787],
        [40.78526, -77.87815],
        [40.78518, -77.87851],
        [40.78528, -77.87889],
        [40.7858, -77.87966],
        [40.78659, -77.88034],
        [40.78742, -77.88193],
        [40.78777, -77.8834],
        [40.78784, -77.88504],
        [40.78803, -77.88546],
        [40.78883, -77.88608],
        [40.78963, -77.88652],
        [40.7913, -77.88689],
        [40.79131, -77.8879],
        [40.791, -77.88968],
        [40.79071, -77.89011],
        [40.79003, -77.89048],
        [40.7891, -77.89061],
        [40.78831, -77.8904],
        [40.78792, -77.89015],
        [40.78519, -77.88744],
        [40.78479, -77.88733],
        [40.78342, -77.88591],
        [40.7829, -77.88522],
        [40.78205, -77.88249],
        [40.78147, -77.88154],
        [40.78228, -77.88047],
        [40.78244, -77.88063],
        [40.78439, -77.87748]
      ]
    },
    {
      "id": "brothers-pizza",
      "category": "restaurant",
      "difficulty": "easy",
      "inPlay": true,
      "fameScore": 57,
      "clue": null,
      "photoUrl": null,
      "lat": 40.8025524,
      "lng": -77.88607,
      "name": "Brothers Pizza - Northland Center",
      "source": "overpass",
      "attribution": "OpenStreetMap ODbL",
      "lastVerified": "2026-06-24"
    },
    {
      "id": "bryce-jordan-center",
      "name": "Bryce Jordan Center",
      "lat": 40.808583,
      "lng": -77.855449,
      "category": "venue",
      "difficulty": "easy",
      "inPlay": true,
      "fameScore": 88,
      "clue": null,
      "photoUrl": null,
      "source": "overpass",
      "attribution": "OpenStreetMap ODbL; Wikidata CC0",
      "lastVerified": "2026-06-16"
    },
    {
      "id": "butterfly-garden",
      "name": "Butterfly Garden",
      "lat": 40.800524,
      "lng": -77.89616,
      "category": "park",
      "difficulty": "easy",
      "inPlay": true,
      "fameScore": 52,
      "clue": null,
      "photoUrl": null,
      "source": "overpass",
      "attribution": "OpenStreetMap ODbL",
      "lastVerified": "2026-06-16",
      "polygon": [
        [40.80042, -77.89703],
        [40.80004, -77.89606],
        [40.80018, -77.89529],
        [40.80101, -77.89609],
        [40.80094, -77.89633],
        [40.80045, -77.897]
      ]
    },
    {
      "id": "cafe-210-west",
      "name": "Cafe 210 West",
      "lat": 40.793177,
      "lng": -77.863004,
      "category": "bar",
      "difficulty": "easy",
      "inPlay": true,
      "fameScore": 72,
      "clue": null,
      "photoUrl": null,
      "source": "overpass",
      "attribution": "OpenStreetMap ODbL",
      "lastVerified": "2026-06-16"
    },
    {
      "id": "cafe-alina",
      "name": "Cafe Alina",
      "lat": 40.797985,
      "lng": -77.855861,
      "category": "restaurant",
      "difficulty": "medium",
      "inPlay": true,
      "fameScore": 35,
      "clue": null,
      "photoUrl": null,
      "source": "overpass",
      "attribution": "OpenStreetMap ODbL",
      "lastVerified": "2026-06-16"
    },
    {
      "id": "cafe-laura",
      "name": "Cafe Laura",
      "lat": 40.798767,
      "lng": -77.870114,
      "category": "restaurant",
      "difficulty": "easy",
      "inPlay": true,
      "fameScore": 48,
      "clue": null,
      "photoUrl": null,
      "source": "overpass",
      "attribution": "OpenStreetMap ODbL",
      "lastVerified": "2026-06-16"
    },
    {
      "id": "cafe-lemont",
      "name": "Cafe Lemont",
      "lat": 40.808943,
      "lng": -77.818817,
      "category": "cafe",
      "difficulty": "medium",
      "inPlay": true,
      "fameScore": 30,
      "clue": null,
      "photoUrl": null,
      "source": "overpass",
      "attribution": "OpenStreetMap ODbL",
      "lastVerified": "2026-06-16"
    },
    {
      "id": "cafe-wow",
      "name": "Cafe Wow",
      "lat": 40.795944,
      "lng": -77.859076,
      "category": "cafe",
      "difficulty": "medium",
      "inPlay": true,
      "fameScore": 38,
      "clue": null,
      "photoUrl": null,
      "source": "overpass",
      "attribution": "OpenStreetMap ODbL",
      "lastVerified": "2026-06-16"
    },
    {
      "id": "cairns-crossing",
      "name": "Cairns Crossing",
      "lat": 40.810027,
      "lng": -77.820535,
      "category": "park",
      "inPlay": false,
      "fameScore": 18,
      "clue": null,
      "photoUrl": null,
      "source": "overpass",
      "attribution": "OpenStreetMap ODbL",
      "lastVerified": "2026-06-17",
      "polygon": [
        [40.81, -77.82086],
        [40.81024, -77.82066],
        [40.81007, -77.82021],
        [40.80982, -77.82053]
      ]
    },
    {
      "id": "canyon-pizza",
      "name": "Canyon Pizza",
      "lat": 40.794902,
      "lng": -77.858522,
      "category": "restaurant",
      "difficulty": "easy",
      "inPlay": true,
      "fameScore": 68,
      "clue": null,
      "photoUrl": null,
      "source": "overpass",
      "attribution": "OpenStreetMap ODbL",
      "lastVerified": "2026-06-16"
    },
    {
      "id": "carters-table",
      "name": "Carter's Table",
      "lat": 40.79718,
      "lng": -77.855738,
      "category": "restaurant",
      "difficulty": "medium",
      "inPlay": true,
      "fameScore": 30,
      "clue": null,
      "photoUrl": null,
      "source": "overpass",
      "attribution": "OpenStreetMap ODbL",
      "lastVerified": "2026-06-16"
    },
    {
      "id": "celebrities-bar-and-grill",
      "name": "Celebrities Bar and Grill",
      "lat": 40.78473,
      "lng": -77.839347,
      "category": "restaurant",
      "difficulty": "hard",
      "inPlay": true,
      "fameScore": 20,
      "clue": null,
      "photoUrl": null,
      "source": "overpass",
      "attribution": "OpenStreetMap ODbL",
      "lastVerified": "2026-06-16"
    },
    {
      "id": "central-reservation",
      "name": "Central Reservation",
      "lat": 40.793557,
      "lng": -77.860311,
      "category": "restaurant",
      "difficulty": "medium",
      "inPlay": true,
      "fameScore": 35,
      "clue": null,
      "photoUrl": null,
      "source": "overpass",
      "attribution": "OpenStreetMap ODbL",
      "lastVerified": "2026-06-16"
    },
    {
      "id": "centre-furnace",
      "name": "Centre Furnace",
      "lat": 40.805241,
      "lng": -77.843469,
      "category": "landmark",
      "difficulty": "easy",
      "inPlay": true,
      "fameScore": 55,
      "clue": null,
      "photoUrl": null,
      "source": "overpass",
      "attribution": "OpenStreetMap ODbL; Wikidata CC0",
      "lastVerified": "2026-06-16"
    },
    {
      "id": "centre-furnace-mansion",
      "name": "Centre Furnace Mansion",
      "lat": 40.806671,
      "lng": -77.842145,
      "category": "museum",
      "difficulty": "easy",
      "inPlay": true,
      "fameScore": 60,
      "clue": null,
      "photoUrl": null,
      "source": "overpass",
      "attribution": "OpenStreetMap ODbL; Wikidata CC0",
      "lastVerified": "2026-06-16"
    },
    {
      "id": "centre-hills-country-club",
      "name": "Centre Hills Country Club",
      "lat": 40.793,
      "lng": -77.821986,
      "category": "golf_course",
      "difficulty": "easy",
      "inPlay": true,
      "fameScore": 55,
      "clue": null,
      "photoUrl": null,
      "source": "overpass",
      "attribution": "OpenStreetMap ODbL",
      "lastVerified": "2026-06-16",
      "polygon": [
        [40.79341, -77.83808],
        [40.79409, -77.83821],
        [40.79812, -77.84001],
        [40.79955, -77.83771],
        [40.79886, -77.83669],
        [40.79917, -77.83616],
        [40.79842, -77.83557],
        [40.79695, -77.83472],
        [40.79622, -77.83447],
        [40.79632, -77.83371],
        [40.79716, -77.83423],
        [40.79803, -77.83353],
        [40.79821, -77.83327],
        [40.79861, -77.83229],
        [40.79897, -77.83191],
        [40.79903, -77.8315],
        [40.79896, -77.83109],
        [40.79863, -77.8312],
        [40.79746, -77.83136],
        [40.79697, -77.83156],
        [40.79634, -77.832],
        [40.79569, -77.83278],
        [40.79493, -77.8334],
        [40.79466, -77.83326],
        [40.79444, -77.83246],
        [40.79422, -77.832],
        [40.79338, -77.83096],
        [40.79325, -77.83145],
        [40.79264, -77.83126],
        [40.7921, -77.82989],
        [40.79146, -77.82787],
        [40.79131, -77.82702],
        [40.79172, -77.82494],
        [40.79237, -77.82352],
        [40.79363, -77.82264],
        [40.79415, -77.82154],
        [40.79419, -77.82122],
        [40.79465, -77.82032],
        [40.79377, -77.81922],
        [40.79277, -77.8177],
        [40.79262, -77.81765],
        [40.79254, -77.81801],
        [40.79226, -77.8183],
        [40.79215, -77.81864],
        [40.79196, -77.81877],
        [40.79172, -77.81874],
        [40.79146, -77.81858],
        [40.7912, -77.81814],
        [40.79114, -77.8177],
        [40.79142, -77.81617],
        [40.79141, -77.81557],
        [40.79155, -77.81519],
        [40.79104, -77.81362],
        [40.79074, -77.81225],
        [40.79049, -77.81078],
        [40.79033, -77.80856],
        [40.78983, -77.80487],
        [40.78968, -77.80424],
        [40.78953, -77.80396],
        [40.78944, -77.80396],
        [40.78851, -77.80614],
        [40.78868, -77.80664],
        [40.78918, -77.80674],
        [40.78925, -77.80684],
        [40.78951, -77.80876],
        [40.78914, -77.81048],
        [40.7879, -77.81106],
        [40.78645, -77.81421],
        [40.78679, -77.81478],
        [40.78732, -77.81471],
        [40.78808, -77.81389],
        [40.78903, -77.81257],
        [40.78964, -77.81228],
        [40.79042, -77.81546],
        [40.79004, -77.81611],
        [40.78969, -77.8175],
        [40.78961, -77.81943],
        [40.78849, -77.82148],
        [40.78964, -77.82263],
        [40.79003, -77.82203],
        [40.79027, -77.82197],
        [40.79098, -77.82278],
        [40.79002, -77.82707],
        [40.79046, -77.82896],
        [40.79156, -77.83093],
        [40.79176, -77.83147],
        [40.79139, -77.83159],
        [40.79093, -77.83221],
        [40.79398, -77.83366],
        [40.7939, -77.83477],
        [40.79351, -77.83541]
      ]
    },
    {
      "id": "champs-downtown",
      "name": "Champ's Downtown",
      "lat": 40.793754,
      "lng": -77.860549,
      "category": "bar",
      "difficulty": "easy",
      "inPlay": true,
      "fameScore": 68,
      "clue": null,
      "photoUrl": null,
      "source": "overpass",
      "attribution": "OpenStreetMap ODbL",
      "lastVerified": "2026-06-16"
    },
    {
      "id": "champs-sports-grill",
      "name": "Champ's Sports Grill",
      "lat": 40.808017,
      "lng": -77.892907,
      "category": "restaurant",
      "difficulty": "easy",
      "inPlay": true,
      "fameScore": 72,
      "clue": null,
      "photoUrl": null,
      "source": "overpass",
      "attribution": "OpenStreetMap ODbL",
      "lastVerified": "2026-06-16"
    },
    {
      "id": "chew-chew-bun",
      "name": "Chew Chew Bun",
      "lat": 40.79382,
      "lng": -77.859971,
      "category": "cafe",
      "difficulty": "medium",
      "inPlay": true,
      "fameScore": 40,
      "clue": null,
      "photoUrl": null,
      "source": "overpass",
      "attribution": "OpenStreetMap ODbL",
      "lastVerified": "2026-06-16"
    },
    {
      "id": "chick-2",
      "name": "Chick 2",
      "lat": 40.794908,
      "lng": -77.860745,
      "category": "restaurant",
      "difficulty": "hard",
      "inPlay": true,
      "fameScore": 22,
      "clue": null,
      "photoUrl": null,
      "source": "overpass",
      "attribution": "OpenStreetMap ODbL",
      "lastVerified": "2026-06-16"
    },
    {
      "id": "chumleys",
      "name": "Chumley's",
      "lat": 40.794124,
      "lng": -77.861772,
      "category": "bar",
      "difficulty": "easy",
      "inPlay": true,
      "fameScore": 60,
      "clue": null,
      "photoUrl": null,
      "source": "overpass",
      "attribution": "OpenStreetMap ODbL",
      "lastVerified": "2026-06-16"
    },
    {
      "id": "cluck-catch",
      "name": "Cluck & Catch",
      "lat": 40.781967,
      "lng": -77.853225,
      "category": "restaurant",
      "inPlay": false,
      "fameScore": 18,
      "clue": null,
      "photoUrl": null,
      "source": "overpass",
      "attribution": "OpenStreetMap ODbL",
      "lastVerified": "2026-06-17"
    },
    {
      "id": "college-buffet",
      "name": "College Buffet",
      "lat": 40.810315,
      "lng": -77.894921,
      "category": "restaurant",
      "difficulty": "easy",
      "inPlay": true,
      "fameScore": 45,
      "clue": null,
      "photoUrl": null,
      "source": "overpass",
      "attribution": "OpenStreetMap ODbL",
      "lastVerified": "2026-06-16"
    },
    {
      "id": "cozy-thai",
      "name": "Cozy Thai",
      "lat": 40.7927,
      "lng": -77.859433,
      "category": "restaurant",
      "difficulty": "easy",
      "inPlay": true,
      "fameScore": 58,
      "clue": null,
      "photoUrl": null,
      "source": "overpass",
      "attribution": "OpenStreetMap ODbL",
      "lastVerified": "2026-06-16"
    },
    {
      "id": "dagu-rice-noodle",
      "name": "Dagu Rice Noodle",
      "lat": 40.794992,
      "lng": -77.860626,
      "category": "restaurant",
      "difficulty": "hard",
      "inPlay": true,
      "fameScore": 22,
      "clue": null,
      "photoUrl": null,
      "source": "overpass",
      "attribution": "OpenStreetMap ODbL",
      "lastVerified": "2026-06-16"
    },
    {
      "id": "dalevue-park",
      "name": "Dalevue Park",
      "lat": 40.798029,
      "lng": -77.824891,
      "category": "park",
      "difficulty": "medium",
      "inPlay": true,
      "fameScore": 30,
      "clue": null,
      "photoUrl": null,
      "source": "overpass",
      "attribution": "OpenStreetMap ODbL",
      "lastVerified": "2026-06-16",
      "polygon": [
        [40.79703, -77.82301],
        [40.79686, -77.82443],
        [40.79729, -77.82677],
        [40.799, -77.8265],
        [40.7989, -77.82575],
        [40.7992, -77.82506],
        [40.79853, -77.82422],
        [40.79736, -77.82329]
      ]
    },
    {
      "id": "delhi-junction",
      "name": "Delhi Junction",
      "lat": 40.795922,
      "lng": -77.857901,
      "category": "restaurant",
      "difficulty": "hard",
      "inPlay": true,
      "fameScore": 28,
      "clue": null,
      "photoUrl": null,
      "source": "overpass",
      "attribution": "OpenStreetMap ODbL",
      "lastVerified": "2026-06-16"
    },
    {
      "id": "discovery-space",
      "name": "Discovery Space",
      "lat": 40.802018,
      "lng": -77.882318,
      "category": "museum",
      "difficulty": "easy",
      "inPlay": true,
      "fameScore": 52,
      "clue": null,
      "photoUrl": null,
      "source": "overpass",
      "attribution": "OpenStreetMap ODbL",
      "lastVerified": "2026-06-16"
    },
    {
      "id": "doggies-pizza",
      "name": "Doggie's Pizza",
      "lat": 40.794779,
      "lng": -77.860232,
      "category": "restaurant",
      "difficulty": "medium",
      "inPlay": true,
      "fameScore": 38,
      "clue": null,
      "photoUrl": null,
      "source": "overpass",
      "attribution": "OpenStreetMap ODbL",
      "lastVerified": "2026-06-16"
    },
    {
      "id": "doggies-pub",
      "name": "Doggie's Pub",
      "lat": 40.795044,
      "lng": -77.860254,
      "category": "bar",
      "difficulty": "medium",
      "inPlay": true,
      "fameScore": 42,
      "clue": null,
      "photoUrl": null,
      "source": "overpass",
      "attribution": "OpenStreetMap ODbL",
      "lastVerified": "2026-06-16"
    },
    {
      "id": "douglas-albert-gallery",
      "name": "Douglas Albert Gallery",
      "lat": 40.795599,
      "lng": -77.859452,
      "category": "museum",
      "difficulty": "medium",
      "inPlay": true,
      "fameScore": 35,
      "clue": null,
      "photoUrl": null,
      "source": "overpass",
      "attribution": "OpenStreetMap ODbL",
      "lastVerified": "2026-06-16"
    },
    {
      "id": "east-fairmount-park",
      "name": "East Fairmount Park",
      "lat": 40.797751,
      "lng": -77.850717,
      "category": "park",
      "difficulty": "hard",
      "inPlay": true,
      "fameScore": 22,
      "clue": null,
      "photoUrl": null,
      "source": "overpass",
      "attribution": "OpenStreetMap ODbL",
      "lastVerified": "2026-06-16",
      "polygon": [
        [40.7973, -77.85068],
        [40.79793, -77.85015],
        [40.79821, -77.85077],
        [40.79758, -77.85129],
        [40.79751, -77.85114]
      ]
    },
    {
      "id": "east-food-district",
      "name": "East Food District",
      "lat": 40.806496,
      "lng": -77.862148,
      "category": "restaurant",
      "difficulty": "hard",
      "inPlay": true,
      "fameScore": 25,
      "clue": null,
      "photoUrl": null,
      "source": "overpass",
      "attribution": "OpenStreetMap ODbL",
      "lastVerified": "2026-06-16"
    },
    {
      "id": "eden-valley-coffee-company",
      "name": "Eden Valley Coffee Company",
      "lat": 40.810699,
      "lng": -77.828423,
      "category": "cafe",
      "difficulty": "hard",
      "inPlay": true,
      "fameScore": 22,
      "clue": null,
      "photoUrl": null,
      "source": "overpass",
      "attribution": "OpenStreetMap ODbL",
      "lastVerified": "2026-06-16"
    },
    {
      "id": "edge-pollock",
      "name": "Edge @ Pollock",
      "lat": 40.801896,
      "lng": -77.85647,
      "category": "restaurant",
      "difficulty": "hard",
      "inPlay": true,
      "fameScore": 30,
      "clue": null,
      "photoUrl": null,
      "source": "overpass",
      "attribution": "OpenStreetMap ODbL",
      "lastVerified": "2026-06-16"
    },
    {
      "id": "edwin-w-zoller-gallery",
      "name": "Edwin W. Zoller Gallery",
      "lat": 40.8009,
      "lng": -77.865264,
      "category": "museum",
      "difficulty": "medium",
      "inPlay": true,
      "fameScore": 32,
      "clue": null,
      "photoUrl": null,
      "source": "overpass",
      "attribution": "OpenStreetMap ODbL",
      "lastVerified": "2026-06-16"
    },
    {
      "id": "el-jefes-taqueria",
      "name": "El Jefe's Taqueria",
      "lat": 40.797126,
      "lng": -77.856814,
      "category": "restaurant",
      "difficulty": "medium",
      "inPlay": true,
      "fameScore": 40,
      "clue": null,
      "photoUrl": null,
      "source": "overpass",
      "attribution": "OpenStreetMap ODbL",
      "lastVerified": "2026-06-16"
    },
    {
      "id": "elxir-coffee-roasters",
      "name": "Elxir Coffee Roasters",
      "lat": 40.79301,
      "lng": -77.861053,
      "category": "cafe",
      "difficulty": "easy",
      "inPlay": true,
      "fameScore": 45,
      "clue": null,
      "photoUrl": null,
      "source": "overpass",
      "attribution": "OpenStreetMap ODbL",
      "lastVerified": "2026-06-16"
    },
    {
      "id": "ems-museum-and-art-gallery",
      "name": "EMS Museum and Art Gallery",
      "lat": 40.794143,
      "lng": -77.865447,
      "category": "museum",
      "difficulty": "medium",
      "inPlay": true,
      "fameScore": 42,
      "clue": null,
      "photoUrl": null,
      "source": "overpass",
      "attribution": "OpenStreetMap ODbL",
      "lastVerified": "2026-06-16"
    },
    {
      "id": "faccia-luna",
      "name": "Faccia Luna",
      "lat": 40.784802,
      "lng": -77.847392,
      "category": "restaurant",
      "difficulty": "easy",
      "inPlay": true,
      "fameScore": 62,
      "clue": null,
      "photoUrl": null,
      "source": "overpass",
      "attribution": "OpenStreetMap ODbL",
      "lastVerified": "2026-06-17"
    },
    {
      "id": "faculty-cottages",
      "name": "Faculty Cottages",
      "lat": 40.799813,
      "lng": -77.861772,
      "category": "landmark",
      "difficulty": "medium",
      "inPlay": true,
      "fameScore": 38,
      "clue": null,
      "photoUrl": null,
      "source": "overpass",
      "attribution": "OpenStreetMap ODbL",
      "lastVerified": "2026-06-16"
    },
    {
      "id": "famous-ernies-steaks",
      "name": "Famous Ernie's Steaks",
      "lat": 40.793743,
      "lng": -77.860076,
      "category": "restaurant",
      "difficulty": "medium",
      "inPlay": true,
      "fameScore": 45,
      "clue": null,
      "photoUrl": null,
      "source": "overpass",
      "attribution": "OpenStreetMap ODbL",
      "lastVerified": "2026-06-16"
    },
    {
      "id": "fatoum-bistro",
      "name": "Fatoum Bistro",
      "lat": 40.781986,
      "lng": -77.853189,
      "category": "restaurant",
      "difficulty": "hard",
      "inPlay": true,
      "fameScore": 22,
      "clue": null,
      "photoUrl": null,
      "source": "overpass",
      "attribution": "OpenStreetMap ODbL",
      "lastVerified": "2026-06-16"
    },
    {
      "id": "federal-taphouse",
      "name": "Federal Taphouse",
      "lat": 40.792738,
      "lng": -77.862086,
      "category": "restaurant",
      "difficulty": "easy",
      "inPlay": true,
      "fameScore": 52,
      "clue": null,
      "photoUrl": null,
      "source": "overpass",
      "attribution": "OpenStreetMap ODbL",
      "lastVerified": "2026-06-16"
    },
    {
      "id": "fiddlehead",
      "name": "Fiddlehead",
      "lat": 40.793592,
      "lng": -77.862498,
      "category": "restaurant",
      "difficulty": "medium",
      "inPlay": true,
      "fameScore": 42,
      "clue": null,
      "photoUrl": null,
      "source": "overpass",
      "attribution": "OpenStreetMap ODbL",
      "lastVerified": "2026-06-16"
    },
    {
      "id": "fire-fig-grill",
      "name": "Fire & Fig Grill",
      "lat": 40.801404,
      "lng": -77.880615,
      "category": "restaurant",
      "difficulty": "hard",
      "inPlay": true,
      "fameScore": 22,
      "clue": null,
      "photoUrl": null,
      "source": "overpass",
      "attribution": "OpenStreetMap ODbL",
      "lastVerified": "2026-06-16"
    },
    {
      "id": "foundry-park",
      "name": "Foundry Park",
      "lat": 40.793853,
      "lng": -77.863449,
      "category": "park",
      "difficulty": "medium",
      "inPlay": true,
      "fameScore": 32,
      "clue": null,
      "photoUrl": null,
      "source": "overpass",
      "attribution": "OpenStreetMap ODbL",
      "lastVerified": "2026-06-16",
      "polygon": [
        [40.79361, -77.86352],
        [40.79385, -77.86374],
        [40.7941, -77.86341],
        [40.79389, -77.86315]
      ]
    },
    {
      "id": "fresco-pollock",
      "name": "Fresco @ Pollock",
      "lat": 40.801933,
      "lng": -77.856227,
      "category": "restaurant",
      "inPlay": false,
      "fameScore": 18,
      "clue": null,
      "photoUrl": null,
      "source": "overpass",
      "attribution": "OpenStreetMap ODbL",
      "lastVerified": "2026-06-17"
    },
    {
      "id": "fresh-bites-pizza",
      "name": "Fresh Bites Pizza",
      "lat": 40.793105,
      "lng": -77.857057,
      "category": "restaurant",
      "inPlay": false,
      "fameScore": 15,
      "clue": null,
      "photoUrl": null,
      "source": "overpass",
      "attribution": "OpenStreetMap ODbL",
      "lastVerified": "2026-06-17"
    },
    {
      "id": "fuji-jade-garden-my-thai",
      "name": "Fuji Jade Garden & My Thai",
      "lat": 40.803564,
      "lng": -77.888087,
      "category": "restaurant",
      "difficulty": "easy",
      "inPlay": true,
      "fameScore": 45,
      "clue": null,
      "photoUrl": null,
      "source": "overpass",
      "attribution": "OpenStreetMap ODbL",
      "lastVerified": "2026-06-16"
    },
    {
      "id": "general-james-a-beaver-memorial",
      "name": "General James A. Beaver Memorial",
      "lat": 40.8123,
      "lng": -77.85415,
      "category": "landmark",
      "inPlay": false,
      "fameScore": 20,
      "clue": null,
      "photoUrl": null,
      "source": "overpass",
      "attribution": "OpenStreetMap ODbL",
      "lastVerified": "2026-06-17"
    },
    {
      "id": "giuseppes-pizzeria",
      "name": "Giuseppe's Pizzeria",
      "lat": 40.795356,
      "lng": -77.86016,
      "category": "restaurant",
      "difficulty": "hard",
      "inPlay": true,
      "fameScore": 28,
      "clue": null,
      "photoUrl": null,
      "source": "overpass",
      "attribution": "OpenStreetMap ODbL",
      "lastVerified": "2026-06-16"
    },
    {
      "id": "glenn-park",
      "name": "Glenn Park",
      "lat": 40.807761,
      "lng": -77.82155,
      "category": "park",
      "inPlay": false,
      "fameScore": 20,
      "clue": null,
      "photoUrl": null,
      "source": "overpass",
      "attribution": "OpenStreetMap ODbL",
      "lastVerified": "2026-06-17",
      "polygon": [
        [40.80824, -77.82167],
        [40.8077, -77.82084],
        [40.80728, -77.82121],
        [40.80805, -77.82226]
      ]
    },
    {
      "id": "good-day-cafe",
      "name": "Good Day Cafe",
      "lat": 40.78678,
      "lng": -77.857337,
      "category": "cafe",
      "difficulty": "medium",
      "inPlay": true,
      "fameScore": 32,
      "clue": null,
      "photoUrl": null,
      "source": "overpass",
      "attribution": "OpenStreetMap ODbL",
      "lastVerified": "2026-06-16"
    },
    {
      "id": "green-bowl",
      "name": "Green Bowl",
      "lat": 40.792876,
      "lng": -77.861231,
      "category": "restaurant",
      "difficulty": "easy",
      "inPlay": true,
      "fameScore": 48,
      "clue": null,
      "photoUrl": null,
      "source": "overpass",
      "attribution": "OpenStreetMap ODbL",
      "lastVerified": "2026-06-16"
    },
    {
      "id": "gudong-hot-pot-delivery",
      "name": "Gudong Hot Pot Delivery",
      "lat": 40.801943,
      "lng": -77.88147,
      "category": "restaurant",
      "difficulty": "hard",
      "inPlay": true,
      "fameScore": 22,
      "clue": null,
      "photoUrl": null,
      "source": "overpass",
      "attribution": "OpenStreetMap ODbL",
      "lastVerified": "2026-06-16"
    },
    {
      "id": "halal-cart",
      "name": "Halal Cart",
      "lat": 40.802928,
      "lng": -77.866325,
      "category": "cafe",
      "difficulty": "hard",
      "inPlay": true,
      "fameScore": 25,
      "clue": null,
      "photoUrl": null,
      "source": "overpass",
      "attribution": "OpenStreetMap ODbL",
      "lastVerified": "2026-06-16"
    },
    {
      "id": "happy-valley-brewing-company",
      "name": "Happy Valley Brewing Company",
      "lat": 40.810628,
      "lng": -77.829339,
      "category": "restaurant",
      "difficulty": "easy",
      "inPlay": true,
      "fameScore": 60,
      "clue": null,
      "photoUrl": null,
      "source": "overpass",
      "attribution": "OpenStreetMap ODbL",
      "lastVerified": "2026-06-16"
    },
    {
      "id": "happy-valley-live",
      "name": "Happy Valley Live",
      "lat": 40.806531,
      "lng": -77.840785,
      "category": "restaurant",
      "difficulty": "hard",
      "inPlay": true,
      "fameScore": 25,
      "clue": null,
      "photoUrl": null,
      "source": "overpass",
      "attribution": "OpenStreetMap ODbL",
      "lastVerified": "2026-06-16"
    },
    {
      "id": "harris-acres-parklet",
      "name": "Harris Acres Parklet",
      "lat": 40.779151,
      "lng": -77.817593,
      "category": "park",
      "inPlay": false,
      "fameScore": 14,
      "clue": null,
      "photoUrl": null,
      "source": "overpass",
      "attribution": "OpenStreetMap ODbL",
      "lastVerified": "2026-06-17",
      "polygon": [
        [40.77966, -77.81725],
        [40.77864, -77.81733],
        [40.77913, -77.81794],
        [40.77928, -77.81792]
      ]
    },
    {
      "id": "hawaiian-poke-bowl-pho-cafe",
      "name": "Hawaiian Poke Bowl & Pho Cafe",
      "lat": 40.791223,
      "lng": -77.863042,
      "category": "restaurant",
      "difficulty": "hard",
      "inPlay": true,
      "fameScore": 28,
      "clue": null,
      "photoUrl": null,
      "source": "overpass",
      "attribution": "OpenStreetMap ODbL",
      "lastVerified": "2026-06-16"
    },
    {
      "id": "haymarket-park",
      "name": "Haymarket Park",
      "lat": 40.772779,
      "lng": -77.874638,
      "category": "park",
      "difficulty": "hard",
      "inPlay": true,
      "fameScore": 28,
      "clue": null,
      "photoUrl": null,
      "source": "overpass",
      "attribution": "OpenStreetMap ODbL",
      "lastVerified": "2026-06-16",
      "polygon": [
        [40.771, -77.87391],
        [40.77107, -77.8738],
        [40.77149, -77.87423],
        [40.77159, -77.87424],
        [40.77282, -77.8725],
        [40.77456, -77.87425],
        [40.77404, -77.87522],
        [40.77386, -77.87541],
        [40.7732, -77.87538],
        [40.77287, -77.87545],
        [40.77265, -77.87596],
        [40.77277, -77.87627],
        [40.77212, -77.87626],
        [40.77225, -77.87675],
        [40.7722, -77.87678],
        [40.77204, -77.87629],
        [40.77161, -77.87665],
        [40.77236, -77.87525],
        [40.77103, -77.87393]
      ]
    },
    {
      "id": "hibachi-san",
      "name": "HIBACHI-SAN",
      "lat": 40.798262,
      "lng": -77.861079,
      "category": "restaurant",
      "difficulty": "medium",
      "inPlay": true,
      "fameScore": 30,
      "clue": null,
      "photoUrl": null,
      "source": "overpass",
      "attribution": "OpenStreetMap ODbL",
      "lastVerified": "2026-06-16"
    },
    {
      "id": "high-point-park",
      "name": "High Point Park",
      "lat": 40.771539,
      "lng": -77.859383,
      "category": "park",
      "difficulty": "medium",
      "inPlay": true,
      "fameScore": 35,
      "clue": null,
      "photoUrl": null,
      "source": "overpass",
      "attribution": "OpenStreetMap ODbL",
      "lastVerified": "2026-06-16",
      "polygon": [
        [40.77131, -77.8608],
        [40.77247, -77.85884],
        [40.77279, -77.85916],
        [40.77283, -77.85908],
        [40.77172, -77.85797],
        [40.77064, -77.85991],
        [40.77032, -77.8596],
        [40.77025, -77.85973],
        [40.77122, -77.8607]
      ]
    },
    {
      "id": "highlands-historic-district",
      "name": "Highlands Historic District",
      "lat": 40.793002,
      "lng": -77.853149,
      "category": "landmark",
      "difficulty": "hard",
      "inPlay": true,
      "fameScore": 28,
      "clue": null,
      "photoUrl": null,
      "source": "overpass",
      "attribution": "OpenStreetMap ODbL; Wikidata CC0",
      "lastVerified": "2026-06-16"
    },
    {
      "id": "hiway-pizza-pub",
      "name": "HiWay Pizza Pub",
      "lat": 40.784146,
      "lng": -77.875299,
      "category": "restaurant",
      "difficulty": "easy",
      "inPlay": true,
      "fameScore": 55,
      "clue": null,
      "photoUrl": null,
      "source": "overpass",
      "attribution": "OpenStreetMap ODbL",
      "lastVerified": "2026-06-16"
    },
    {
      "id": "ho-smith-botanic-gardens",
      "name": "H.O. Smith Botanic Gardens",
      "lat": 40.805544,
      "lng": -77.867637,
      "category": "park",
      "difficulty": "easy",
      "inPlay": true,
      "fameScore": 58,
      "clue": null,
      "photoUrl": null,
      "source": "overpass",
      "attribution": "OpenStreetMap ODbL",
      "lastVerified": "2026-06-16",
      "polygon": [
        [40.80375, -77.86684],
        [40.80369, -77.86657],
        [40.80551, -77.865],
        [40.80578, -77.86479],
        [40.80595, -77.86479],
        [40.80636, -77.86569],
        [40.80731, -77.86839],
        [40.80743, -77.86888],
        [40.80737, -77.86906],
        [40.80691, -77.86991],
        [40.80645, -77.87049],
        [40.80632, -77.87012],
        [40.80584, -77.86975],
        [40.80546, -77.86998],
        [40.80525, -77.87],
        [40.80511, -77.87017],
        [40.80509, -77.87034],
        [40.80494, -77.87041],
        [40.80392, -77.86736]
      ]
    },
    {
      "id": "holmes-foster-park",
      "name": "Holmes-Foster Park",
      "lat": 40.783163,
      "lng": -77.864831,
      "category": "park",
      "difficulty": "medium",
      "inPlay": true,
      "fameScore": 38,
      "clue": null,
      "photoUrl": null,
      "source": "overpass",
      "attribution": "OpenStreetMap ODbL; Wikidata CC0",
      "lastVerified": "2026-06-16",
      "polygon": [
        [40.78268, -77.86649],
        [40.78499, -77.86338],
        [40.78434, -77.86253],
        [40.78202, -77.86606],
        [40.78202, -77.86694],
        [40.7821, -77.86694],
        [40.78242, -77.86659]
      ]
    },
    {
      "id": "hosss-steak-sea-house",
      "name": "Hoss's Steak & Sea House",
      "lat": 40.80595,
      "lng": -77.889514,
      "category": "restaurant",
      "difficulty": "easy",
      "inPlay": true,
      "fameScore": 55,
      "clue": null,
      "photoUrl": null,
      "source": "overpass",
      "attribution": "OpenStreetMap ODbL",
      "lastVerified": "2026-06-16"
    },
    {
      "id": "india-pavilion",
      "name": "India Pavilion",
      "lat": 40.795415,
      "lng": -77.859132,
      "category": "restaurant",
      "difficulty": "easy",
      "inPlay": true,
      "fameScore": 58,
      "clue": null,
      "photoUrl": null,
      "source": "overpass",
      "attribution": "OpenStreetMap ODbL",
      "lastVerified": "2026-06-16"
    },
    {
      "id": "irvings-bagels",
      "name": "Irving's Bagels",
      "lat": 40.794556,
      "lng": -77.861226,
      "category": "cafe",
      "difficulty": "easy",
      "inPlay": true,
      "fameScore": 65,
      "clue": null,
      "photoUrl": null,
      "source": "overpass",
      "attribution": "OpenStreetMap ODbL",
      "lastVerified": "2026-06-16"
    },
    {
      "id": "john-i-thompson-grain-elevator-and-coal-sheds",
      "name": "John I. Thompson Grain Elevator and Coal Sheds",
      "lat": 40.810529,
      "lng": -77.817242,
      "category": "landmark",
      "difficulty": "hard",
      "inPlay": true,
      "fameScore": 22,
      "clue": null,
      "photoUrl": null,
      "source": "overpass",
      "attribution": "OpenStreetMap ODbL",
      "lastVerified": "2026-06-16"
    },
    {
      "id": "k2-roots",
      "name": "K2 Roots",
      "lat": 40.79769,
      "lng": -77.856752,
      "category": "restaurant",
      "difficulty": "medium",
      "inPlay": true,
      "fameScore": 38,
      "clue": null,
      "photoUrl": null,
      "source": "overpass",
      "attribution": "OpenStreetMap ODbL",
      "lastVerified": "2026-06-16"
    },
    {
      "id": "kamrai-thai-sushi",
      "name": "Kamrai Thai & Sushi",
      "lat": 40.809532,
      "lng": -77.818654,
      "category": "restaurant",
      "difficulty": "easy",
      "inPlay": true,
      "fameScore": 50,
      "clue": null,
      "photoUrl": null,
      "source": "overpass",
      "attribution": "OpenStreetMap ODbL",
      "lastVerified": "2026-06-16"
    },
    {
      "id": "kitchen-garden",
      "name": "Kitchen Garden",
      "lat": 40.785766,
      "lng": -77.830158,
      "category": "restaurant",
      "difficulty": "medium",
      "inPlay": true,
      "fameScore": 35,
      "clue": null,
      "photoUrl": null,
      "source": "overpass",
      "attribution": "OpenStreetMap ODbL",
      "lastVerified": "2026-06-16"
    },
    {
      "id": "kondu",
      "name": "Kondu",
      "lat": 40.79368,
      "lng": -77.860837,
      "category": "restaurant",
      "difficulty": "medium",
      "inPlay": true,
      "fameScore": 30,
      "clue": null,
      "photoUrl": null,
      "source": "overpass",
      "attribution": "OpenStreetMap ODbL",
      "lastVerified": "2026-06-16"
    },
    {
      "id": "lederer-park",
      "name": "Lederer Park",
      "lat": 40.796074,
      "lng": -77.840554,
      "category": "park",
      "difficulty": "medium",
      "inPlay": true,
      "fameScore": 38,
      "clue": null,
      "photoUrl": null,
      "source": "overpass",
      "attribution": "OpenStreetMap ODbL",
      "lastVerified": "2026-06-16",
      "polygon": [
        [40.79744, -77.84244],
        [40.79731, -77.84204],
        [40.7971, -77.8418],
        [40.79812, -77.84001],
        [40.79409, -77.83821],
        [40.79403, -77.83954],
        [40.79477, -77.83991],
        [40.79465, -77.84054],
        [40.79417, -77.8405],
        [40.7962, -77.8425],
        [40.79651, -77.8429],
        [40.79705, -77.84271]
      ]
    },
    {
      "id": "lion-shrine",
      "name": "Lion Shrine",
      "lat": 40.796805,
      "lng": -77.868936,
      "category": "attraction",
      "difficulty": "easy",
      "inPlay": true,
      "fameScore": 95,
      "clue": null,
      "photoUrl": null,
      "source": "overpass",
      "attribution": "OpenStreetMap ODbL; Wikidata CC0",
      "lastVerified": "2026-06-16"
    },
    {
      "id": "lionne",
      "name": "Lionne",
      "lat": 40.79675,
      "lng": -77.871385,
      "category": "restaurant",
      "difficulty": "easy",
      "inPlay": true,
      "fameScore": 52,
      "clue": null,
      "photoUrl": null,
      "source": "overpass",
      "attribution": "OpenStreetMap ODbL",
      "lastVerified": "2026-06-16"
    },
    {
      "id": "lions-den",
      "name": "Lion's Den",
      "lat": 40.797596,
      "lng": -77.856619,
      "category": "bar",
      "difficulty": "easy",
      "inPlay": true,
      "fameScore": 52,
      "clue": null,
      "photoUrl": null,
      "source": "overpass",
      "attribution": "OpenStreetMap ODbL",
      "lastVerified": "2026-06-16"
    },
    {
      "id": "little-szechuan",
      "name": "Little Szechuan",
      "lat": 40.792713,
      "lng": -77.863297,
      "category": "restaurant",
      "difficulty": "easy",
      "inPlay": true,
      "fameScore": 55,
      "clue": null,
      "photoUrl": null,
      "source": "overpass",
      "attribution": "OpenStreetMap ODbL",
      "lastVerified": "2026-06-16"
    },
    {
      "id": "local-whiskey",
      "name": "Local Whiskey",
      "lat": 40.793677,
      "lng": -77.860156,
      "category": "bar",
      "difficulty": "easy",
      "inPlay": true,
      "fameScore": 58,
      "clue": null,
      "photoUrl": null,
      "source": "overpass",
      "attribution": "OpenStreetMap ODbL",
      "lastVerified": "2026-06-16"
    },
    {
      "id": "lt-michael-p-murphy-penn-state-veterans-plaza",
      "name": "Lt. Michael P. Murphy Penn State Veterans Plaza",
      "lat": 40.797333,
      "lng": -77.862884,
      "category": "landmark",
      "difficulty": "medium",
      "inPlay": true,
      "fameScore": 35,
      "clue": null,
      "photoUrl": null,
      "source": "overpass",
      "attribution": "OpenStreetMap ODbL",
      "lastVerified": "2026-06-16"
    },
    {
      "id": "lubrano-park",
      "name": "Lubrano Park",
      "lat": 40.81235,
      "lng": -77.852386,
      "category": "venue",
      "difficulty": "easy",
      "inPlay": true,
      "fameScore": 55,
      "clue": null,
      "photoUrl": null,
      "source": "overpass",
      "attribution": "OpenStreetMap ODbL",
      "lastVerified": "2026-06-16"
    },
    {
      "id": "lupitas-authentic-mexican-food",
      "name": "Lupita's Authentic Mexican Food",
      "lat": 40.791314,
      "lng": -77.862901,
      "category": "restaurant",
      "difficulty": "easy",
      "inPlay": true,
      "fameScore": 48,
      "clue": null,
      "photoUrl": null,
      "source": "overpass",
      "attribution": "OpenStreetMap ODbL",
      "lastVerified": "2026-06-16"
    },
    {
      "id": "lychee",
      "name": "Lychee",
      "lat": 40.784947,
      "lng": -77.842887,
      "category": "restaurant",
      "difficulty": "medium",
      "inPlay": true,
      "fameScore": 38,
      "clue": null,
      "photoUrl": null,
      "source": "overpass",
      "attribution": "OpenStreetMap ODbL",
      "lastVerified": "2026-06-16"
    },
    {
      "id": "maine-bay-berry-co",
      "name": "Maine Bay & Berry Co.",
      "lat": 40.810713,
      "lng": -77.828218,
      "category": "restaurant",
      "difficulty": "medium",
      "inPlay": true,
      "fameScore": 42,
      "clue": null,
      "photoUrl": null,
      "source": "overpass",
      "attribution": "OpenStreetMap ODbL",
      "lastVerified": "2026-06-16"
    },
    {
      "id": "manna-korean-bbq-hot-pot",
      "name": "Manna Korean BBQ & Hot Pot",
      "lat": 40.781715,
      "lng": -77.853275,
      "category": "restaurant",
      "difficulty": "hard",
      "inPlay": true,
      "fameScore": 28,
      "clue": null,
      "photoUrl": null,
      "source": "overpass",
      "attribution": "OpenStreetMap ODbL",
      "lastVerified": "2026-06-16"
    },
    {
      "id": "margaritas-pizzeria-and-italian-cuisine",
      "name": "Margarita's Pizzeria and Italian Cuisine",
      "lat": 40.792016,
      "lng": -77.862005,
      "category": "restaurant",
      "difficulty": "medium",
      "inPlay": true,
      "fameScore": 38,
      "clue": null,
      "photoUrl": null,
      "source": "overpass",
      "attribution": "OpenStreetMap ODbL",
      "lastVerified": "2026-06-16"
    },
    {
      "id": "marjorie-mae-park",
      "name": "Marjorie Mae Park",
      "lat": 40.814138,
      "lng": -77.889011,
      "category": "park",
      "inPlay": false,
      "fameScore": 18,
      "clue": null,
      "photoUrl": null,
      "source": "overpass",
      "attribution": "OpenStreetMap ODbL",
      "lastVerified": "2026-06-17",
      "polygon": [
        [40.81387, -77.88796],
        [40.81343, -77.88895],
        [40.81307, -77.88945],
        [40.81409, -77.89048],
        [40.8143, -77.88991],
        [40.81521, -77.88854],
        [40.81466, -77.88773],
        [40.8145, -77.88795],
        [40.81406, -77.88755],
        [40.81396, -77.88787]
      ]
    },
    {
      "id": "martin-luther-king-jr-memorial",
      "name": "Martin Luther King Jr. Memorial",
      "lat": 40.79266,
      "lng": -77.861598,
      "category": "landmark",
      "difficulty": "easy",
      "inPlay": true,
      "fameScore": 52,
      "clue": null,
      "photoUrl": null,
      "source": "overpass",
      "attribution": "OpenStreetMap ODbL",
      "lastVerified": "2026-06-16"
    },
    {
      "id": "marzonis-brick-oven-brewing-co",
      "name": "Marzoni’s Brick Oven & Brewing Co.",
      "lat": 40.802774,
      "lng": -77.88128,
      "category": "restaurant",
      "difficulty": "medium",
      "inPlay": true,
      "fameScore": 44,
      "clue": null,
      "photoUrl": null,
      "source": "overpass",
      "attribution": "OpenStreetMap ODbL",
      "lastVerified": "2026-06-16"
    },
    {
      "id": "masala-palace",
      "name": "Masala Palace",
      "lat": 40.793727,
      "lng": -77.85969,
      "category": "restaurant",
      "difficulty": "easy",
      "inPlay": true,
      "fameScore": 45,
      "clue": null,
      "photoUrl": null,
      "source": "overpass",
      "attribution": "OpenStreetMap ODbL",
      "lastVerified": "2026-06-16"
    },
    {
      "id": "medlar-field-at-lubrano-park",
      "name": "Medlar Field at Lubrano Park",
      "lat": 40.81235,
      "lng": -77.852233,
      "category": "venue",
      "difficulty": "easy",
      "inPlay": true,
      "fameScore": 68,
      "clue": null,
      "photoUrl": null,
      "source": "overpass",
      "attribution": "OpenStreetMap ODbL; Wikidata CC0",
      "lastVerified": "2026-06-16"
    },
    {
      "id": "mercato-mio",
      "name": "Mercato Mio",
      "lat": 40.809078,
      "lng": -77.835196,
      "category": "restaurant",
      "difficulty": "medium",
      "inPlay": true,
      "fameScore": 32,
      "clue": null,
      "photoUrl": null,
      "source": "overpass",
      "attribution": "OpenStreetMap ODbL",
      "lastVerified": "2026-06-16"
    },
    {
      "id": "millbrook-marsh-nature-center",
      "name": "Millbrook Marsh Nature Center",
      "lat": 40.813224,
      "lng": -77.837962,
      "category": "attraction",
      "difficulty": "easy",
      "inPlay": true,
      "fameScore": 55,
      "clue": null,
      "photoUrl": null,
      "source": "overpass",
      "attribution": "OpenStreetMap ODbL",
      "lastVerified": "2026-06-16"
    },
    {
      "id": "momotaro",
      "name": "Momotaro",
      "lat": 40.792845,
      "lng": -77.863122,
      "category": "cafe",
      "difficulty": "medium",
      "inPlay": true,
      "fameScore": 40,
      "clue": null,
      "photoUrl": null,
      "source": "overpass",
      "attribution": "OpenStreetMap ODbL",
      "lastVerified": "2026-06-16"
    },
    {
      "id": "monte-carlos-pizza-wings",
      "name": "Monte Carlo's Pizza & Wings",
      "lat": 40.789545,
      "lng": -77.867889,
      "category": "restaurant",
      "difficulty": "medium",
      "inPlay": true,
      "fameScore": 33,
      "clue": null,
      "photoUrl": null,
      "source": "overpass",
      "attribution": "OpenStreetMap ODbL",
      "lastVerified": "2026-06-16"
    },
    {
      "id": "mosul-grill",
      "name": "Mosul Grill",
      "lat": 40.798291,
      "lng": -77.856127,
      "category": "restaurant",
      "difficulty": "medium",
      "inPlay": true,
      "fameScore": 30,
      "clue": null,
      "photoUrl": null,
      "source": "overpass",
      "attribution": "OpenStreetMap ODbL",
      "lastVerified": "2026-06-16"
    },
    {
      "id": "mountainside-park",
      "name": "Mountainside Park",
      "lat": 40.812969,
      "lng": -77.812526,
      "category": "park",
      "difficulty": "hard",
      "inPlay": true,
      "fameScore": 20,
      "clue": null,
      "photoUrl": null,
      "source": "overpass",
      "attribution": "OpenStreetMap ODbL",
      "lastVerified": "2026-06-17",
      "polygon": [
        [40.8126, -77.81043],
        [40.81234, -77.81225],
        [40.81268, -77.81223],
        [40.8124, -77.81378],
        [40.81248, -77.81486],
        [40.81356, -77.81472],
        [40.8136, -77.81404],
        [40.81354, -77.81352],
        [40.8134, -77.81309],
        [40.81347, -77.81277],
        [40.81325, -77.81204],
        [40.81322, -77.8102]
      ]
    },
    {
      "id": "nittany-lion-softball-park",
      "name": "Nittany Lion Softball Park",
      "lat": 40.808238,
      "lng": -77.861309,
      "category": "venue",
      "difficulty": "easy",
      "inPlay": true,
      "fameScore": 55,
      "clue": null,
      "photoUrl": null,
      "source": "overpass",
      "attribution": "OpenStreetMap ODbL",
      "lastVerified": "2026-06-16"
    },
    {
      "id": "nittany-orchard-park",
      "name": "Nittany Orchard Park",
      "lat": 40.806286,
      "lng": -77.814883,
      "category": "park",
      "difficulty": "hard",
      "inPlay": true,
      "fameScore": 22,
      "clue": null,
      "photoUrl": null,
      "source": "overpass",
      "attribution": "OpenStreetMap ODbL",
      "lastVerified": "2026-06-16",
      "polygon": [
        [40.80708, -77.81512],
        [40.80675, -77.81357],
        [40.80597, -77.81462],
        [40.80549, -77.81511],
        [40.80587, -77.81619],
        [40.80666, -77.81549]
      ]
    },
    {
      "id": "nittany-village-park",
      "name": "Nittany Village Park",
      "lat": 40.783657,
      "lng": -77.844098,
      "category": "park",
      "difficulty": "hard",
      "inPlay": true,
      "fameScore": 22,
      "clue": null,
      "photoUrl": null,
      "source": "overpass",
      "attribution": "OpenStreetMap ODbL",
      "lastVerified": "2026-06-16",
      "polygon": [
        [40.78387, -77.84471],
        [40.78338, -77.84417],
        [40.78388, -77.84348],
        [40.78393, -77.8435],
        [40.78389, -77.84448]
      ]
    },
    {
      "id": "oak-grove-park",
      "name": "Oak Grove Park",
      "lat": 40.799117,
      "lng": -77.82338,
      "category": "park",
      "inPlay": false,
      "fameScore": 20,
      "clue": null,
      "photoUrl": null,
      "source": "overpass",
      "attribution": "OpenStreetMap ODbL",
      "lastVerified": "2026-06-17",
      "polygon": [
        [40.79968, -77.82254],
        [40.79841, -77.8228],
        [40.79966, -77.82422],
        [40.79981, -77.82388]
      ]
    },
    {
      "id": "oakwood-park",
      "name": "Oakwood Park",
      "lat": 40.815874,
      "lng": -77.892681,
      "category": "park",
      "difficulty": "hard",
      "inPlay": true,
      "fameScore": 25,
      "clue": null,
      "photoUrl": null,
      "source": "overpass",
      "attribution": "OpenStreetMap ODbL",
      "lastVerified": "2026-06-16",
      "polygon": [
        [40.81511, -77.89293],
        [40.81581, -77.89184],
        [40.81635, -77.89177],
        [40.81664, -77.89338],
        [40.81577, -77.89359],
        [40.81554, -77.89337]
      ]
    },
    {
      "id": "old-botany",
      "name": "Old Botany",
      "lat": 40.796737,
      "lng": -77.864047,
      "category": "landmark",
      "difficulty": "easy",
      "inPlay": true,
      "fameScore": 62,
      "clue": null,
      "photoUrl": null,
      "source": "overpass",
      "attribution": "OpenStreetMap ODbL",
      "lastVerified": "2026-06-16"
    },
    {
      "id": "old-main",
      "name": "Old Main",
      "lat": 40.796943,
      "lng": -77.863445,
      "category": "landmark",
      "difficulty": "easy",
      "inPlay": true,
      "fameScore": 95,
      "clue": null,
      "photoUrl": null,
      "source": "overpass",
      "attribution": "OpenStreetMap ODbL",
      "lastVerified": "2026-06-16"
    },
    {
      "id": "oliv-hetzel",
      "name": "ōLiv Hetzel",
      "lat": 40.798974,
      "lng": -77.854911,
      "category": "cafe",
      "inPlay": false,
      "fameScore": 15,
      "clue": null,
      "photoUrl": null,
      "source": "overpass",
      "attribution": "OpenStreetMap ODbL",
      "lastVerified": "2026-06-17"
    },
    {
      "id": "orchard-park",
      "name": "Orchard Park",
      "lat": 40.775638,
      "lng": -77.862604,
      "category": "park",
      "difficulty": "medium",
      "inPlay": true,
      "fameScore": 38,
      "clue": null,
      "photoUrl": null,
      "source": "overpass",
      "attribution": "OpenStreetMap ODbL",
      "lastVerified": "2026-06-16",
      "polygon": [
        [40.77186, -77.86477],
        [40.77312, -77.86416],
        [40.77338, -77.86328],
        [40.77549, -77.86231],
        [40.77771, -77.85905],
        [40.77807, -77.85931],
        [40.77767, -77.85924],
        [40.77711, -77.86004],
        [40.77702, -77.8606],
        [40.77757, -77.86054],
        [40.77762, -77.86031],
        [40.77791, -77.86055],
        [40.77797, -77.86074],
        [40.77846, -77.86099],
        [40.77867, -77.86101],
        [40.77904, -77.86005],
        [40.77941, -77.86033],
        [40.77895, -77.86151],
        [40.77799, -77.86092],
        [40.77722, -77.86094],
        [40.77667, -77.86122],
        [40.77623, -77.86163],
        [40.77584, -77.86227],
        [40.77569, -77.86275],
        [40.77529, -77.86527],
        [40.77452, -77.86528],
        [40.77395, -77.86539],
        [40.77224, -77.86615],
        [40.77189, -77.86486]
      ]
    },
    {
      "id": "original-waffle-shop",
      "name": "Original Waffle Shop",
      "lat": 40.803404,
      "lng": -77.883066,
      "category": "restaurant",
      "difficulty": "easy",
      "inPlay": true,
      "fameScore": 68,
      "clue": null,
      "photoUrl": null,
      "source": "overpass",
      "attribution": "OpenStreetMap ODbL",
      "lastVerified": "2026-06-16"
    },
    {
      "id": "osaka",
      "name": "Osaka",
      "lat": 40.798823,
      "lng": -77.855596,
      "category": "restaurant",
      "difficulty": "medium",
      "inPlay": true,
      "fameScore": 40,
      "clue": null,
      "photoUrl": null,
      "source": "overpass",
      "attribution": "OpenStreetMap ODbL",
      "lastVerified": "2026-06-16"
    },
    {
      "id": "palmer-museum-at-the-arboretum",
      "name": "Palmer Museum at the Arboretum",
      "lat": 40.806718,
      "lng": -77.868044,
      "category": "museum",
      "difficulty": "easy",
      "inPlay": true,
      "fameScore": 72,
      "clue": null,
      "photoUrl": null,
      "source": "overpass",
      "attribution": "OpenStreetMap ODbL",
      "lastVerified": "2026-06-16"
    },
    {
      "id": "panzer-stadium",
      "name": "Panzer Stadium",
      "lat": 40.807332,
      "lng": -77.853523,
      "category": "venue",
      "difficulty": "medium",
      "inPlay": true,
      "fameScore": 38,
      "clue": null,
      "photoUrl": null,
      "source": "overpass",
      "attribution": "OpenStreetMap ODbL",
      "lastVerified": "2026-06-16"
    },
    {
      "id": "park-ave-lower-intramural-fields",
      "name": "Park Ave Lower Intramural Fields",
      "lat": 40.809196,
      "lng": -77.863454,
      "category": "park",
      "difficulty": "medium",
      "inPlay": true,
      "fameScore": 30,
      "clue": null,
      "photoUrl": null,
      "source": "overpass",
      "attribution": "OpenStreetMap ODbL",
      "lastVerified": "2026-06-16",
      "polygon": [
        [40.80822, -77.86456],
        [40.80793, -77.86364],
        [40.81015, -77.86235],
        [40.81047, -77.86328]
      ]
    },
    {
      "id": "park-hills-park",
      "name": "Park Hills Park",
      "lat": 40.795739,
      "lng": -77.899373,
      "category": "park",
      "inPlay": false,
      "fameScore": 18,
      "clue": null,
      "photoUrl": null,
      "source": "overpass",
      "attribution": "OpenStreetMap ODbL",
      "lastVerified": "2026-06-17",
      "polygon": [
        [40.79508, -77.89943],
        [40.795, -77.89896],
        [40.79483, -77.89859],
        [40.79361, -77.8974],
        [40.79368, -77.89725],
        [40.79456, -77.89803],
        [40.79473, -77.89774],
        [40.79477, -77.89778],
        [40.79462, -77.89808],
        [40.79563, -77.8991],
        [40.79607, -77.89869],
        [40.7961, -77.89876],
        [40.79567, -77.89914],
        [40.79625, -77.89981],
        [40.79704, -77.89998],
        [40.79746, -77.90039],
        [40.79774, -77.90005],
        [40.79751, -77.90043],
        [40.79787, -77.90138],
        [40.79769, -77.9015],
        [40.79737, -77.90063],
        [40.79696, -77.9002],
        [40.79508, -77.9001]
      ]
    },
    {
      "id": "patterson-gallery",
      "name": "Patterson Gallery",
      "lat": 40.800364,
      "lng": -77.864926,
      "category": "museum",
      "inPlay": false,
      "fameScore": 18,
      "clue": null,
      "photoUrl": null,
      "source": "overpass",
      "attribution": "OpenStreetMap ODbL",
      "lastVerified": "2026-06-17"
    },
    {
      "id": "penang",
      "name": "Penang",
      "lat": 40.802971,
      "lng": -77.882041,
      "category": "restaurant",
      "difficulty": "easy",
      "inPlay": true,
      "fameScore": 48,
      "clue": null,
      "photoUrl": null,
      "source": "overpass",
      "attribution": "OpenStreetMap ODbL",
      "lastVerified": "2026-06-16"
    },
    {
      "id": "penn-kebab",
      "name": "Penn Kebab",
      "lat": 40.798107,
      "lng": -77.856481,
      "category": "restaurant",
      "difficulty": "medium",
      "inPlay": true,
      "fameScore": 35,
      "clue": null,
      "photoUrl": null,
      "source": "overpass",
      "attribution": "OpenStreetMap ODbL",
      "lastVerified": "2026-06-17"
    },
    {
      "id": "penn-state-all-sports-museum",
      "name": "Penn State All-Sports Museum",
      "lat": 40.81105,
      "lng": -77.8555,
      "category": "museum",
      "difficulty": "easy",
      "inPlay": true,
      "fameScore": 62,
      "clue": null,
      "photoUrl": null,
      "source": "overpass",
      "attribution": "OpenStreetMap ODbL",
      "lastVerified": "2026-06-16"
    },
    {
      "id": "penn-state-community-garden-pollinator-garden",
      "name": "Penn State Community Garden Pollinator Garden",
      "lat": 40.810403,
      "lng": -77.848299,
      "category": "park",
      "inPlay": false,
      "fameScore": 15,
      "clue": null,
      "photoUrl": null,
      "source": "overpass",
      "attribution": "OpenStreetMap ODbL",
      "lastVerified": "2026-06-17",
      "polygon": [
        [40.81049, -77.84837],
        [40.81035, -77.84838],
        [40.81033, -77.84819],
        [40.81041, -77.84828]
      ]
    },
    {
      "id": "penn-steaks",
      "name": "Penn Steaks",
      "lat": 40.795046,
      "lng": -77.859928,
      "category": "restaurant",
      "difficulty": "hard",
      "inPlay": true,
      "fameScore": 28,
      "clue": null,
      "photoUrl": null,
      "source": "overpass",
      "attribution": "OpenStreetMap ODbL",
      "lastVerified": "2026-06-16"
    },
    {
      "id": "pennsylvania-agricultural-college-pac-herbarium",
      "name": "Pennsylvania Agricultural College (PAC) Herbarium",
      "lat": 40.798907,
      "lng": -77.86367,
      "category": "museum",
      "inPlay": false,
      "fameScore": 20,
      "clue": null,
      "photoUrl": null,
      "source": "overpass",
      "attribution": "OpenStreetMap ODbL",
      "lastVerified": "2026-06-17"
    },
    {
      "id": "pennsylvania-state-golf-courses",
      "name": "Pennsylvania State Golf Courses",
      "lat": 40.789041,
      "lng": -77.880285,
      "category": "golf_course",
      "difficulty": "easy",
      "inPlay": true,
      "fameScore": 55,
      "clue": null,
      "photoUrl": null,
      "source": "overpass",
      "attribution": "OpenStreetMap ODbL; Wikidata CC0",
      "lastVerified": "2026-06-16",
      "polygon": [
        [40.791, -77.88968],
        [40.79131, -77.8879],
        [40.79135, -77.88394],
        [40.79128, -77.88154],
        [40.79136, -77.87926],
        [40.79042, -77.87787],
        [40.79259, -77.87588],
        [40.79661, -77.87247],
        [40.79594, -77.87153],
        [40.79533, -77.87025],
        [40.79501, -77.86996],
        [40.79458, -77.87104],
        [40.79294, -77.87325],
        [40.79206, -77.87196],
        [40.79157, -77.87236],
        [40.79127, -77.87276],
        [40.79092, -77.87293],
        [40.79051, -77.87356],
        [40.79038, -77.8736],
        [40.78971, -77.87445],
        [40.78922, -77.8747],
        [40.78841, -77.8755],
        [40.78791, -77.87617],
        [40.78708, -77.87751],
        [40.78585, -77.87633],
        [40.78524, -77.87644],
        [40.78439, -77.87748],
        [40.78244, -77.88063],
        [40.78228, -77.88047],
        [40.78147, -77.88154],
        [40.78205, -77.88249],
        [40.7829, -77.88522],
        [40.78342, -77.88591],
        [40.78479, -77.88733],
        [40.78519, -77.88744],
        [40.78792, -77.89015],
        [40.78831, -77.8904],
        [40.7891, -77.89061],
        [40.79003, -77.89048],
        [40.79071, -77.89011]
      ]
    },
    {
      "id": "pho-11",
      "name": "Pho 11",
      "lat": 40.792287,
      "lng": -77.866987,
      "category": "restaurant",
      "difficulty": "medium",
      "inPlay": true,
      "fameScore": 42,
      "clue": null,
      "photoUrl": null,
      "source": "overpass",
      "attribution": "OpenStreetMap ODbL",
      "lastVerified": "2026-06-16"
    },
    {
      "id": "phyrst",
      "name": "Phyrst",
      "lat": 40.793749,
      "lng": -77.860064,
      "category": "bar",
      "difficulty": "easy",
      "inPlay": true,
      "fameScore": 72,
      "clue": null,
      "photoUrl": null,
      "source": "overpass",
      "attribution": "OpenStreetMap ODbL",
      "lastVerified": "2026-06-16"
    },
    {
      "id": "pilato-studios",
      "name": "Pilato Studios",
      "lat": 40.796742,
      "lng": -77.857702,
      "category": "museum",
      "difficulty": "hard",
      "inPlay": true,
      "fameScore": 30,
      "clue": null,
      "photoUrl": null,
      "source": "overpass",
      "attribution": "OpenStreetMap ODbL",
      "lastVerified": "2026-06-16"
    },
    {
      "id": "pita-cabana",
      "name": "Pita Cabana",
      "lat": 40.796841,
      "lng": -77.857243,
      "category": "restaurant",
      "difficulty": "medium",
      "inPlay": true,
      "fameScore": 44,
      "clue": null,
      "photoUrl": null,
      "source": "overpass",
      "attribution": "OpenStreetMap ODbL",
      "lastVerified": "2026-06-16"
    },
    {
      "id": "pollinator-garden",
      "name": "Pollinator Garden",
      "lat": 40.812596,
      "lng": -77.837343,
      "category": "park",
      "difficulty": "hard",
      "inPlay": true,
      "fameScore": 28,
      "clue": null,
      "photoUrl": null,
      "source": "overpass",
      "attribution": "OpenStreetMap ODbL",
      "lastVerified": "2026-06-16",
      "polygon": [
        [40.81265, -77.83746],
        [40.81268, -77.83725],
        [40.81253, -77.83722],
        [40.81251, -77.83743],
        [40.81264, -77.83746]
      ]
    },
    {
      "id": "pure-food-laws",
      "name": "Pure Food Laws",
      "lat": 40.799547,
      "lng": -77.864086,
      "category": "landmark",
      "inPlay": false,
      "fameScore": 18,
      "clue": null,
      "photoUrl": null,
      "source": "overpass",
      "attribution": "OpenStreetMap ODbL",
      "lastVerified": "2026-06-17"
    },
    {
      "id": "ramyun-studio",
      "name": "Ramyun Studio",
      "lat": 40.795147,
      "lng": -77.859493,
      "category": "restaurant",
      "difficulty": "medium",
      "inPlay": true,
      "fameScore": 32,
      "clue": null,
      "photoUrl": null,
      "source": "overpass",
      "attribution": "OpenStreetMap ODbL",
      "lastVerified": "2026-06-16"
    },
    {
      "id": "robeson-gallery",
      "name": "Robeson Gallery",
      "lat": 40.798117,
      "lng": -77.861375,
      "category": "museum",
      "difficulty": "medium",
      "inPlay": true,
      "fameScore": 45,
      "clue": null,
      "photoUrl": null,
      "source": "overpass",
      "attribution": "OpenStreetMap ODbL",
      "lastVerified": "2026-06-16"
    },
    {
      "id": "roots-natural-kitchen",
      "name": "Roots Natural Kitchen",
      "lat": 40.795423,
      "lng": -77.857406,
      "category": "restaurant",
      "difficulty": "medium",
      "inPlay": true,
      "fameScore": 38,
      "clue": null,
      "photoUrl": null,
      "source": "overpass",
      "attribution": "OpenStreetMap ODbL",
      "lastVerified": "2026-06-16"
    },
    {
      "id": "rothrock-coffee",
      "name": "Rothrock Coffee",
      "lat": 40.784399,
      "lng": -77.834546,
      "category": "cafe",
      "difficulty": "easy",
      "inPlay": true,
      "fameScore": 52,
      "clue": null,
      "photoUrl": null,
      "source": "overpass",
      "attribution": "OpenStreetMap ODbL",
      "lastVerified": "2026-06-16"
    },
    {
      "id": "sakura-asian-restaurant",
      "name": "Sakura Asian Restaurant",
      "lat": 40.785575,
      "lng": -77.837757,
      "category": "restaurant",
      "difficulty": "easy",
      "inPlay": true,
      "fameScore": 46,
      "clue": null,
      "photoUrl": null,
      "source": "overpass",
      "attribution": "OpenStreetMap ODbL",
      "lastVerified": "2026-06-16"
    },
    {
      "id": "sauly-boys",
      "name": "Sauly Boy's",
      "lat": 40.793813,
      "lng": -77.861032,
      "category": "restaurant",
      "difficulty": "medium",
      "inPlay": true,
      "fameScore": 35,
      "clue": null,
      "photoUrl": null,
      "source": "overpass",
      "attribution": "OpenStreetMap ODbL",
      "lastVerified": "2026-06-16"
    },
    {
      "id": "schreyer-garden",
      "name": "Schreyer Garden",
      "lat": 40.797345,
      "lng": -77.859401,
      "category": "park",
      "inPlay": false,
      "fameScore": 12,
      "clue": null,
      "photoUrl": null,
      "source": "overpass",
      "attribution": "OpenStreetMap ODbL",
      "lastVerified": "2026-06-17",
      "polygon": [
        [40.7974, -77.85928],
        [40.79743, -77.85949],
        [40.7973, -77.85954],
        [40.79724, -77.85938],
        [40.79737, -77.85926]
      ]
    },
    {
      "id": "science-technology-and-society",
      "name": "Science Technology and Society",
      "lat": 40.796927,
      "lng": -77.863955,
      "category": "landmark",
      "inPlay": false,
      "fameScore": 15,
      "clue": null,
      "photoUrl": null,
      "source": "overpass",
      "attribution": "OpenStreetMap ODbL",
      "lastVerified": "2026-06-17"
    },
    {
      "id": "sculpture-garden",
      "name": "Sculpture Garden",
      "lat": 40.800294,
      "lng": -77.866013,
      "category": "park",
      "difficulty": "hard",
      "inPlay": true,
      "fameScore": 25,
      "clue": null,
      "photoUrl": null,
      "source": "overpass",
      "attribution": "OpenStreetMap ODbL",
      "lastVerified": "2026-06-16",
      "polygon": [
        [40.80036, -77.86624],
        [40.8005, -77.86612],
        [40.80031, -77.86578],
        [40.80009, -77.8659]
      ]
    },
    {
      "id": "shamrock-park",
      "name": "Shamrock Park",
      "lat": 40.798531,
      "lng": -77.833973,
      "category": "park",
      "inPlay": false,
      "fameScore": 18,
      "clue": null,
      "photoUrl": null,
      "source": "overpass",
      "attribution": "OpenStreetMap ODbL",
      "lastVerified": "2026-06-17",
      "polygon": [
        [40.79899, -77.83486],
        [40.79891, -77.83491],
        [40.7987, -77.83439],
        [40.79841, -77.83457],
        [40.79792, -77.83361],
        [40.79896, -77.83304],
        [40.79915, -77.83411],
        [40.7988, -77.83433]
      ]
    },
    {
      "id": "sharkies-bar",
      "name": "Sharkies Bar",
      "lat": 40.798143,
      "lng": -77.855915,
      "category": "bar",
      "difficulty": "medium",
      "inPlay": true,
      "fameScore": 44,
      "clue": null,
      "photoUrl": null,
      "source": "overpass",
      "attribution": "OpenStreetMap ODbL",
      "lastVerified": "2026-06-16"
    },
    {
      "id": "sher-halal-gyro",
      "name": "Sher Halal Gyro",
      "lat": 40.794383,
      "lng": -77.859437,
      "category": "restaurant",
      "difficulty": "medium",
      "inPlay": true,
      "fameScore": 42,
      "clue": null,
      "photoUrl": null,
      "source": "overpass",
      "attribution": "OpenStreetMap ODbL",
      "lastVerified": "2026-06-16"
    },
    {
      "id": "sher-hot-chicken",
      "name": "Sher Hot Chicken",
      "lat": 40.793713,
      "lng": -77.860498,
      "category": "restaurant",
      "difficulty": "medium",
      "inPlay": true,
      "fameScore": 30,
      "clue": null,
      "photoUrl": null,
      "source": "overpass",
      "attribution": "OpenStreetMap ODbL",
      "lastVerified": "2026-06-17"
    },
    {
      "id": "sichuan-house",
      "name": "Sichuan House",
      "lat": 40.793659,
      "lng": -77.860425,
      "category": "restaurant",
      "difficulty": "medium",
      "inPlay": true,
      "fameScore": 34,
      "clue": null,
      "photoUrl": null,
      "source": "overpass",
      "attribution": "OpenStreetMap ODbL",
      "lastVerified": "2026-06-16"
    },
    {
      "id": "sidney-friedman-park",
      "name": "Sidney Friedman Park",
      "lat": 40.791727,
      "lng": -77.859848,
      "category": "park",
      "difficulty": "medium",
      "inPlay": true,
      "fameScore": 42,
      "clue": null,
      "photoUrl": null,
      "source": "overpass",
      "attribution": "OpenStreetMap ODbL",
      "lastVerified": "2026-06-16",
      "polygon": [
        [40.79161, -77.86041],
        [40.79132, -77.86004],
        [40.79149, -77.85981],
        [40.79192, -77.85928],
        [40.79213, -77.85968]
      ]
    },
    {
      "id": "sip-and-slurp",
      "name": "Sip and Slurp",
      "lat": 40.798292,
      "lng": -77.856269,
      "category": "restaurant",
      "difficulty": "medium",
      "inPlay": true,
      "fameScore": 30,
      "clue": null,
      "photoUrl": null,
      "source": "overpass",
      "attribution": "OpenStreetMap ODbL",
      "lastVerified": "2026-06-16"
    },
    {
      "id": "sizzling-bites",
      "name": "Sizzling Bites",
      "lat": 40.794768,
      "lng": -77.859526,
      "category": "restaurant",
      "difficulty": "hard",
      "inPlay": true,
      "fameScore": 22,
      "clue": null,
      "photoUrl": null,
      "source": "overpass",
      "attribution": "OpenStreetMap ODbL",
      "lastVerified": "2026-06-16"
    },
    {
      "id": "slab-cabin-park",
      "name": "Slab Cabin Park",
      "lat": 40.807962,
      "lng": -77.827522,
      "category": "park",
      "difficulty": "easy",
      "inPlay": true,
      "fameScore": 55,
      "clue": null,
      "photoUrl": null,
      "source": "overpass",
      "attribution": "OpenStreetMap ODbL",
      "lastVerified": "2026-06-16",
      "polygon": [
        [40.81025, -77.82794],
        [40.80971, -77.82755],
        [40.80781, -77.82813],
        [40.80696, -77.82801],
        [40.80674, -77.82863],
        [40.80603, -77.82929],
        [40.80568, -77.82837],
        [40.80733, -77.82692],
        [40.80759, -77.82699],
        [40.8081, -77.82682],
        [40.809, -77.8259],
        [40.80931, -77.82575],
        [40.80952, -77.82583],
        [40.81021, -77.82654]
      ]
    },
    {
      "id": "smithfield-park",
      "name": "Smithfield Park",
      "lat": 40.791158,
      "lng": -77.842879,
      "category": "park",
      "inPlay": false,
      "fameScore": 18,
      "clue": null,
      "photoUrl": null,
      "source": "overpass",
      "attribution": "OpenStreetMap ODbL",
      "lastVerified": "2026-06-17",
      "polygon": [
        [40.79116, -77.84355],
        [40.79167, -77.84297],
        [40.79142, -77.84255],
        [40.79103, -77.84221],
        [40.79064, -77.84293]
      ]
    },
    {
      "id": "snap-custom-pizza",
      "name": "Snap Custom Pizza",
      "lat": 40.793643,
      "lng": -77.86242,
      "category": "restaurant",
      "difficulty": "medium",
      "inPlay": true,
      "fameScore": 42,
      "clue": null,
      "photoUrl": null,
      "source": "overpass",
      "attribution": "OpenStreetMap ODbL",
      "lastVerified": "2026-06-16"
    },
    {
      "id": "songbird-sanctuary-park",
      "name": "Songbird Sanctuary Park",
      "lat": 40.778715,
      "lng": -77.877433,
      "category": "park",
      "inPlay": false,
      "fameScore": 20,
      "clue": null,
      "photoUrl": null,
      "source": "overpass",
      "attribution": "OpenStreetMap ODbL",
      "lastVerified": "2026-06-17",
      "polygon": [
        [40.7787, -77.87631],
        [40.77892, -77.87624],
        [40.77879, -77.87609],
        [40.779, -77.87574],
        [40.77959, -77.87621],
        [40.77925, -77.87625],
        [40.77905, -77.87651],
        [40.77904, -77.87673],
        [40.7792, -77.87677],
        [40.77901, -77.87711],
        [40.7796, -77.87761],
        [40.78012, -77.87855],
        [40.77972, -77.87913],
        [40.77916, -77.87865],
        [40.77889, -77.87901],
        [40.77731, -77.87681],
        [40.77809, -77.87654]
      ]
    },
    {
      "id": "sora-teriyaki-sushi",
      "name": "Sora Teriyaki & Sushi",
      "lat": 40.799149,
      "lng": -77.854821,
      "category": "restaurant",
      "difficulty": "hard",
      "inPlay": true,
      "fameScore": 28,
      "clue": null,
      "photoUrl": null,
      "source": "overpass",
      "attribution": "OpenStreetMap ODbL",
      "lastVerified": "2026-06-16"
    },
    {
      "id": "south-food-district",
      "name": "South Food District",
      "lat": 40.7995,
      "lng": -77.855831,
      "category": "restaurant",
      "difficulty": "easy",
      "inPlay": true,
      "fameScore": 55,
      "clue": null,
      "photoUrl": null,
      "source": "overpass",
      "attribution": "OpenStreetMap ODbL",
      "lastVerified": "2026-06-16"
    },
    {
      "id": "south-hills-park",
      "name": "South Hills Park",
      "lat": 40.784237,
      "lng": -77.850017,
      "category": "park",
      "inPlay": false,
      "fameScore": 18,
      "clue": null,
      "photoUrl": null,
      "source": "overpass",
      "attribution": "OpenStreetMap ODbL",
      "lastVerified": "2026-06-17",
      "polygon": [
        [40.78382, -77.84996],
        [40.78407, -77.84962],
        [40.78399, -77.84941],
        [40.78405, -77.84934],
        [40.7842, -77.84947],
        [40.78444, -77.84937],
        [40.78465, -77.85068],
        [40.78451, -77.8507]
      ]
    },
    {
      "id": "sowers-harvest-cafe",
      "name": "Sowers Harvest Cafe",
      "lat": 40.79732,
      "lng": -77.85556,
      "category": "cafe",
      "difficulty": "easy",
      "inPlay": true,
      "fameScore": 52,
      "clue": null,
      "photoUrl": null,
      "source": "overpass",
      "attribution": "OpenStreetMap ODbL",
      "lastVerified": "2026-06-16"
    },
    {
      "id": "stage-west",
      "name": "Stage West",
      "lat": 40.798145,
      "lng": -77.856373,
      "category": "bar",
      "difficulty": "easy",
      "inPlay": true,
      "fameScore": 45,
      "clue": null,
      "photoUrl": null,
      "source": "overpass",
      "attribution": "OpenStreetMap ODbL",
      "lastVerified": "2026-06-16"
    },
    {
      "id": "state-theatre",
      "name": "State Theatre",
      "lat": 40.793744,
      "lng": -77.862286,
      "category": "venue",
      "difficulty": "easy",
      "inPlay": true,
      "fameScore": 82,
      "clue": null,
      "photoUrl": null,
      "source": "overpass",
      "attribution": "OpenStreetMap ODbL; Wikidata CC0",
      "lastVerified": "2026-06-16"
    },
    {
      "id": "suburban-park",
      "name": "Suburban Park",
      "lat": 40.810623,
      "lng": -77.887297,
      "category": "park",
      "difficulty": "medium",
      "inPlay": true,
      "fameScore": 40,
      "clue": null,
      "photoUrl": null,
      "source": "overpass",
      "attribution": "OpenStreetMap ODbL",
      "lastVerified": "2026-06-16",
      "polygon": [
        [40.80995, -77.88883],
        [40.81015, -77.88903],
        [40.81052, -77.88836],
        [40.81097, -77.88781],
        [40.81155, -77.88688],
        [40.81135, -77.88631],
        [40.81148, -77.88602],
        [40.81106, -77.88556],
        [40.8097, -77.88811],
        [40.81, -77.88847],
        [40.80985, -77.88873],
        [40.8099, -77.88878]
      ]
    },
    {
      "id": "sunset-park",
      "name": "Sunset Park",
      "lat": 40.804149,
      "lng": -77.874978,
      "category": "park",
      "difficulty": "medium",
      "inPlay": true,
      "fameScore": 40,
      "clue": null,
      "photoUrl": null,
      "source": "overpass",
      "attribution": "OpenStreetMap ODbL",
      "lastVerified": "2026-06-16",
      "polygon": [
        [40.80338, -77.87652],
        [40.80306, -77.87457],
        [40.80435, -77.87344],
        [40.80524, -77.87447],
        [40.80427, -77.87537],
        [40.80461, -77.87631]
      ]
    },
    {
      "id": "tadashi-japanese-restaurant",
      "name": "Tadashi Japanese Restaurant",
      "lat": 40.791554,
      "lng": -77.865163,
      "category": "restaurant",
      "difficulty": "easy",
      "inPlay": true,
      "fameScore": 55,
      "clue": null,
      "photoUrl": null,
      "source": "overpass",
      "attribution": "OpenStreetMap ODbL",
      "lastVerified": "2026-06-16"
    },
    {
      "id": "tasty-k",
      "name": "Tasty K",
      "lat": 40.796829,
      "lng": -77.857602,
      "category": "restaurant",
      "difficulty": "medium",
      "inPlay": true,
      "fameScore": 38,
      "clue": null,
      "photoUrl": null,
      "source": "overpass",
      "attribution": "OpenStreetMap ODbL",
      "lastVerified": "2026-06-16"
    },
    {
      "id": "teafe",
      "name": "TeaFé",
      "lat": 40.810405,
      "lng": -77.895015,
      "category": "cafe",
      "difficulty": "medium",
      "inPlay": true,
      "fameScore": 38,
      "clue": null,
      "photoUrl": null,
      "source": "overpass",
      "attribution": "OpenStreetMap ODbL",
      "lastVerified": "2026-06-16"
    },
    {
      "id": "the-arboretum-at-penn-state",
      "name": "The Arboretum at Penn State",
      "lat": 40.812165,
      "lng": -77.874898,
      "category": "park",
      "difficulty": "easy",
      "inPlay": true,
      "fameScore": 78,
      "clue": null,
      "photoUrl": null,
      "source": "overpass",
      "attribution": "OpenStreetMap ODbL; Wikidata CC0",
      "lastVerified": "2026-06-16",
      "polygon": [
        [40.80567, -77.87259],
        [40.80658, -77.87104],
        [40.80657, -77.87085],
        [40.80649, -77.87066],
        [40.80605, -77.87039],
        [40.80602, -77.87018],
        [40.80616, -77.87002],
        [40.80589, -77.86976],
        [40.80546, -77.86998],
        [40.80525, -77.87],
        [40.80511, -77.87017],
        [40.80509, -77.87034],
        [40.80491, -77.87038],
        [40.80366, -77.8666],
        [40.80581, -77.86478],
        [40.80595, -77.86479],
        [40.80636, -77.86569],
        [40.80812, -77.87095],
        [40.80939, -77.87024],
        [40.80954, -77.87076],
        [40.80969, -77.87068],
        [40.80989, -77.87113],
        [40.81026, -77.87095],
        [40.81079, -77.87285],
        [40.81133, -77.87256],
        [40.81157, -77.87303],
        [40.81338, -77.87219],
        [40.81386, -77.87269],
        [40.81401, -77.87252],
        [40.81573, -77.87452],
        [40.81695, -77.87315],
        [40.81677, -77.87252],
        [40.81714, -77.87203],
        [40.8177, -77.87189],
        [40.81812, -77.87233],
        [40.81842, -77.87235],
        [40.8189, -77.87225],
        [40.81767, -77.87381],
        [40.81802, -77.87418],
        [40.81864, -77.87383],
        [40.81906, -77.87329],
        [40.82067, -77.87493],
        [40.82009, -77.87764],
        [40.81975, -77.87864],
        [40.81942, -77.88003],
        [40.81981, -77.88038],
        [40.8197, -77.8807],
        [40.81922, -77.88014],
        [40.81906, -77.88113],
        [40.81929, -77.88229],
        [40.81916, -77.88377],
        [40.81924, -77.88501],
        [40.81881, -77.88491],
        [40.81654, -77.88236],
        [40.81673, -77.8821],
        [40.81523, -77.88046],
        [40.81406, -77.88156],
        [40.81263, -77.88305],
        [40.81214, -77.88369],
        [40.81085, -77.88499],
        [40.80602, -77.87975],
        [40.80554, -77.88057],
        [40.80496, -77.88024],
        [40.80451, -77.87862],
        [40.80528, -77.87812],
        [40.80427, -77.87537],
        [40.80596, -77.8738],
        [40.8056, -77.87271]
      ]
    },
    {
      "id": "the-arena-bar-grill",
      "name": "The Arena Bar & Grill",
      "lat": 40.805445,
      "lng": -77.891673,
      "category": "restaurant",
      "difficulty": "medium",
      "inPlay": true,
      "fameScore": 38,
      "clue": null,
      "photoUrl": null,
      "source": "overpass",
      "attribution": "OpenStreetMap ODbL",
      "lastVerified": "2026-06-16"
    },
    {
      "id": "the-brewery",
      "name": "The Brewery",
      "lat": 40.794939,
      "lng": -77.858655,
      "category": "bar",
      "difficulty": "easy",
      "inPlay": true,
      "fameScore": 62,
      "clue": null,
      "photoUrl": null,
      "source": "overpass",
      "attribution": "OpenStreetMap ODbL",
      "lastVerified": "2026-06-16"
    },
    {
      "id": "the-cheese-shoppe",
      "name": "The Cheese Shoppe",
      "lat": 40.795483,
      "lng": -77.85903,
      "category": "cafe",
      "difficulty": "easy",
      "inPlay": true,
      "fameScore": 65,
      "clue": null,
      "photoUrl": null,
      "source": "overpass",
      "attribution": "OpenStreetMap ODbL",
      "lastVerified": "2026-06-16"
    },
    {
      "id": "the-corner-room",
      "name": "The Corner Room",
      "lat": 40.794279,
      "lng": -77.861613,
      "category": "restaurant",
      "difficulty": "easy",
      "inPlay": true,
      "fameScore": 82,
      "clue": null,
      "photoUrl": null,
      "source": "overpass",
      "attribution": "OpenStreetMap ODbL",
      "lastVerified": "2026-06-16"
    },
    {
      "id": "the-cove-new-york-style-pizzeria",
      "name": "The Cove New York Style Pizzeria",
      "lat": 40.808874,
      "lng": -77.832973,
      "category": "restaurant",
      "difficulty": "hard",
      "inPlay": true,
      "fameScore": 28,
      "clue": null,
      "photoUrl": null,
      "source": "overpass",
      "attribution": "OpenStreetMap ODbL",
      "lastVerified": "2026-06-16"
    },
    {
      "id": "the-frost-entomological-museum",
      "name": "The Frost Entomological Museum",
      "lat": 40.80296,
      "lng": -77.862405,
      "category": "museum",
      "difficulty": "medium",
      "inPlay": true,
      "fameScore": 42,
      "clue": null,
      "photoUrl": null,
      "source": "overpass",
      "attribution": "OpenStreetMap ODbL; Wikidata CC0",
      "lastVerified": "2026-06-16"
    },
    {
      "id": "the-greek",
      "name": "The Greek",
      "lat": 40.804184,
      "lng": -77.882927,
      "category": "restaurant",
      "difficulty": "medium",
      "inPlay": true,
      "fameScore": 38,
      "clue": null,
      "photoUrl": null,
      "source": "overpass",
      "attribution": "OpenStreetMap ODbL",
      "lastVerified": "2026-06-16"
    },
    {
      "id": "the-hub-gallery",
      "name": "The HUB Gallery",
      "lat": 40.798167,
      "lng": -77.861332,
      "category": "museum",
      "difficulty": "medium",
      "inPlay": true,
      "fameScore": 35,
      "clue": null,
      "photoUrl": null,
      "source": "overpass",
      "attribution": "OpenStreetMap ODbL",
      "lastVerified": "2026-06-16"
    },
    {
      "id": "the-koop",
      "name": "The Koop",
      "lat": 40.796129,
      "lng": -77.857719,
      "category": "restaurant",
      "difficulty": "medium",
      "inPlay": true,
      "fameScore": 30,
      "clue": null,
      "photoUrl": null,
      "source": "overpass",
      "attribution": "OpenStreetMap ODbL",
      "lastVerified": "2026-06-16"
    },
    {
      "id": "the-land-grant-frescoes",
      "name": "The Land-Grant Frescoes",
      "lat": 40.796457,
      "lng": -77.862819,
      "category": "museum",
      "difficulty": "easy",
      "inPlay": true,
      "fameScore": 48,
      "clue": null,
      "photoUrl": null,
      "source": "overpass",
      "attribution": "OpenStreetMap ODbL",
      "lastVerified": "2026-06-16"
    },
    {
      "id": "the-lemont-village-green",
      "name": "The Lemont Village Green",
      "lat": 40.81109,
      "lng": -77.817193,
      "category": "park",
      "difficulty": "medium",
      "inPlay": true,
      "fameScore": 32,
      "clue": null,
      "photoUrl": null,
      "source": "overpass",
      "attribution": "OpenStreetMap ODbL",
      "lastVerified": "2026-06-16",
      "polygon": [
        [40.81127, -77.81707],
        [40.81129, -77.81726],
        [40.81104, -77.81731],
        [40.81089, -77.81716]
      ]
    },
    {
      "id": "the-original-waffle-shop-west",
      "name": "The Original Waffle Shop West",
      "lat": 40.779582,
      "lng": -77.879472,
      "category": "restaurant",
      "difficulty": "easy",
      "inPlay": true,
      "fameScore": 68,
      "clue": null,
      "photoUrl": null,
      "source": "overpass",
      "attribution": "OpenStreetMap ODbL",
      "lastVerified": "2026-06-16"
    },
    {
      "id": "the-press-cider-and-craft-beverage-tap-house",
      "name": "The Press Cider and Craft Beverage Tap House",
      "lat": 40.797304,
      "lng": -77.857317,
      "category": "bar",
      "difficulty": "hard",
      "inPlay": true,
      "fameScore": 22,
      "clue": null,
      "photoUrl": null,
      "source": "overpass",
      "attribution": "OpenStreetMap ODbL",
      "lastVerified": "2026-06-16"
    },
    {
      "id": "the-shandygaff",
      "name": "The Shandygaff",
      "lat": 40.795325,
      "lng": -77.859564,
      "category": "bar",
      "difficulty": "easy",
      "inPlay": true,
      "fameScore": 62,
      "clue": null,
      "photoUrl": null,
      "source": "overpass",
      "attribution": "OpenStreetMap ODbL",
      "lastVerified": "2026-06-16"
    },
    {
      "id": "the-tavern",
      "name": "The Tavern",
      "lat": 40.7955,
      "lng": -77.859605,
      "category": "restaurant",
      "difficulty": "easy",
      "inPlay": true,
      "fameScore": 78,
      "clue": null,
      "photoUrl": null,
      "source": "overpass",
      "attribution": "OpenStreetMap ODbL",
      "lastVerified": "2026-06-16"
    },
    {
      "id": "the-waffle-shop",
      "name": "The Waffle Shop",
      "lat": 40.797708,
      "lng": -77.856932,
      "category": "restaurant",
      "difficulty": "easy",
      "inPlay": true,
      "fameScore": 68,
      "clue": null,
      "photoUrl": null,
      "source": "overpass",
      "attribution": "OpenStreetMap ODbL",
      "lastVerified": "2026-06-16"
    },
    {
      "id": "thompson-woods-preserve",
      "name": "Thompson Woods Preserve",
      "lat": 40.804186,
      "lng": -77.83587,
      "category": "park",
      "difficulty": "medium",
      "inPlay": true,
      "fameScore": 38,
      "clue": null,
      "photoUrl": null,
      "source": "overpass",
      "attribution": "OpenStreetMap ODbL",
      "lastVerified": "2026-06-16",
      "polygon": [
        [40.80389, -77.83942],
        [40.8034, -77.83809],
        [40.80095, -77.83925],
        [40.80087, -77.83871],
        [40.80117, -77.83852],
        [40.80116, -77.83799],
        [40.80173, -77.83771],
        [40.80286, -77.83672],
        [40.80395, -77.83601],
        [40.80381, -77.83552],
        [40.8041, -77.83511],
        [40.80423, -77.8344],
        [40.80371, -77.83374],
        [40.8053, -77.83232],
        [40.80588, -77.83333],
        [40.80689, -77.83455],
        [40.80736, -77.83475],
        [40.80751, -77.83545],
        [40.80709, -77.83586],
        [40.80673, -77.83635],
        [40.80634, -77.83762],
        [40.80562, -77.83878],
        [40.80489, -77.83865],
        [40.80436, -77.83925],
        [40.8042, -77.83931]
      ]
    },
    {
      "id": "toasted-bagel-cafe",
      "name": "Toasted Bagel Cafe",
      "lat": 40.783337,
      "lng": -77.852931,
      "category": "cafe",
      "difficulty": "hard",
      "inPlay": true,
      "fameScore": 25,
      "clue": null,
      "photoUrl": null,
      "source": "overpass",
      "attribution": "OpenStreetMap ODbL",
      "lastVerified": "2026-06-16"
    },
    {
      "id": "tokyo-sushi-hibachi",
      "name": "Tokyo Sushi & Hibachi",
      "lat": 40.798183,
      "lng": -77.85632,
      "category": "restaurant",
      "difficulty": "hard",
      "inPlay": true,
      "fameScore": 28,
      "clue": null,
      "photoUrl": null,
      "source": "overpass",
      "attribution": "OpenStreetMap ODbL",
      "lastVerified": "2026-06-16"
    },
    {
      "id": "tom-tudek-memorial-park",
      "name": "Tom Tudek Memorial Park",
      "lat": 40.800275,
      "lng": -77.893556,
      "category": "park",
      "difficulty": "easy",
      "inPlay": true,
      "fameScore": 62,
      "clue": null,
      "photoUrl": null,
      "source": "overpass",
      "attribution": "OpenStreetMap ODbL",
      "lastVerified": "2026-06-16",
      "polygon": [
        [40.79841, -77.88969],
        [40.7997, -77.89098],
        [40.80066, -77.88907],
        [40.80385, -77.89195],
        [40.80389, -77.89234],
        [40.80313, -77.89399],
        [40.79993, -77.89804],
        [40.79678, -77.89507],
        [40.79666, -77.89481]
      ]
    },
    {
      "id": "tripletts",
      "name": "Triplett's",
      "lat": 40.796838,
      "lng": -77.87094,
      "category": "bar",
      "difficulty": "medium",
      "inPlay": true,
      "fameScore": 38,
      "clue": null,
      "photoUrl": null,
      "source": "overpass",
      "attribution": "OpenStreetMap ODbL",
      "lastVerified": "2026-06-16"
    },
    {
      "id": "trophy-room",
      "name": "Trophy Room",
      "lat": 40.79152,
      "lng": -77.86405,
      "category": "bar",
      "inPlay": false,
      "fameScore": 20,
      "clue": null,
      "photoUrl": null,
      "source": "overpass",
      "attribution": "OpenStreetMap ODbL (re-pinned via Nominatim, status verified via Google Places)",
      "lastVerified": "2026-06-17"
    },
    {
      "id": "tudek-dog-park",
      "name": "Tudek Dog Park",
      "lat": 40.800328,
      "lng": -77.890828,
      "category": "park",
      "difficulty": "easy",
      "inPlay": true,
      "fameScore": 48,
      "clue": null,
      "photoUrl": null,
      "source": "overpass",
      "attribution": "OpenStreetMap ODbL",
      "lastVerified": "2026-06-16",
      "polygon": [
        [40.80032, -77.89087],
        [40.79992, -77.89082],
        [40.7998, -77.89105],
        [40.80046, -77.89169],
        [40.80085, -77.89095]
      ]
    },
    {
      "id": "tudek-park-community-garden",
      "name": "Tudek Park Community Garden",
      "lat": 40.801698,
      "lng": -77.890941,
      "category": "park",
      "difficulty": "hard",
      "inPlay": true,
      "fameScore": 28,
      "clue": null,
      "photoUrl": null,
      "source": "overpass",
      "attribution": "OpenStreetMap ODbL",
      "lastVerified": "2026-06-16",
      "polygon": [
        [40.80166, -77.89162],
        [40.8012, -77.89121],
        [40.80142, -77.89079],
        [40.80153, -77.89089],
        [40.80185, -77.89026],
        [40.8022, -77.89057]
      ]
    },
    {
      "id": "turfgrass-museum",
      "name": "Turfgrass Museum",
      "lat": 40.812145,
      "lng": -77.867259,
      "category": "museum",
      "inPlay": false,
      "fameScore": 12,
      "clue": null,
      "photoUrl": null,
      "source": "overpass",
      "attribution": "OpenStreetMap ODbL",
      "lastVerified": "2026-06-17"
    },