{
  "version": 1,
  "city": "St. Petersburg, FL",
  "attribution": "Locations © OpenStreetMap contributors (ODbL) and Wikidata (CC0). Satellite imagery © Esri / Maxar.",
  "locations": [
    {
      "id": "3-daughters-brewing",
      "name": "3 Daughters Brewing",
      "lat": 27.769048,
      "lng": -82.662598,
      "category": "bar",
      "clue": "A large, popular craft brewery with a big taproom.",
      "photoUrl": null,
      "source": "overpass",
      "attribution": "OpenStreetMap ODbL"
    },
    {
      "id": "400-beach-seafood-tap-house",
      "name": "400 Beach Seafood & Tap House",
      "lat": 27.777371,
      "lng": -82.631548,
      "category": "restaurant",
      "clue": "A seafood & tap house facing the downtown waterfront.",
      "photoUrl": null,
      "source": "overpass",
      "attribution": "OpenStreetMap ODbL"
    },
    {
      "id": "al-lang-stadium",
      "name": "Al Lang Stadium",
      "lat": 27.7683,
      "lng": -82.633064,
      "category": "venue",
      "clue": "A waterfront stadium, home of the Tampa Bay Rowdies.",
      "photoUrl": null,
      "source": "overpass",
      "attribution": "OpenStreetMap ODbL; Wikidata CC0"
    },
    {
      "id": "bad-mother",
      "name": "Bad Mother",
      "lat": 27.770013,
      "lng": -82.636382,
      "category": "cafe",
      "clue": "An independent coffee shop downtown.",
      "photoUrl": null,
      "source": "overpass",
      "attribution": "OpenStreetMap ODbL"
    },
    {
      "id": "bandit-coffee",
      "name": "Bandit Coffee",
      "lat": 27.770743,
      "lng": -82.669531,
      "category": "cafe",
      "clue": "An independent coffee shop on Central Avenue.",
      "photoUrl": null,
      "source": "overpass",
      "attribution": "OpenStreetMap ODbL"
    },
    {
      "id": "bella-brava",
      "name": "Bella Brava",
      "lat": 27.7737,
      "lng": -82.632919,
      "category": "restaurant",
      "clue": "A New World Italian trattoria on Beach Drive.",
      "photoUrl": null,
      "source": "overpass",
      "attribution": "OpenStreetMap ODbL"
    },
    {
      "id": "boyd-hill-nature-preserve",
      "name": "Boyd Hill Nature Preserve",
      "lat": 27.733404,
      "lng": -82.657829,
      "category": "park",
      "clue": "A 245-acre nature preserve with trails along Lake Maggiore.",
      "photoUrl": null,
      "source": "overpass",
      "attribution": "OpenStreetMap ODbL; Wikidata CC0"
    },
    {
      "id": "brick-mortar",
      "name": "Brick & Mortar",
      "lat": 27.77138,
      "lng": -82.64105,
      "category": "restaurant",
      "clue": "An acclaimed farm-to-table restaurant in the EDGE District.",
      "photoUrl": null,
      "source": "overpass",
      "attribution": "OpenStreetMap ODbL"
    },
    {
      "id": "cage-brewing",
      "name": "Cage Brewing",
      "lat": 27.770466,
      "lng": -82.660509,
      "category": "bar",
      "clue": "A craft brewery & event space in the Warehouse Arts District.",
      "photoUrl": null,
      "source": "overpass",
      "attribution": "OpenStreetMap ODbL"
    },
    {
      "id": "cassis",
      "name": "Cassis",
      "lat": 27.773313,
      "lng": -82.633105,
      "category": "restaurant",
      "clue": "A French-American brasserie on Beach Drive.",
      "photoUrl": null,
      "source": "overpass",
      "attribution": "OpenStreetMap ODbL"
    },
    {
      "id": "central-coffee-shoppe",
      "name": "Central Coffee Shoppe",
      "lat": 27.770906,
      "lng": -82.640853,
      "category": "cafe",
      "clue": "A long-running breakfast diner on Central Avenue.",
      "photoUrl": null,
      "source": "overpass",
      "attribution": "OpenStreetMap ODbL"
    },
    {
      "id": "chihuly-collection",
      "name": "Chihuly Collection",
      "lat": 27.7708,
      "lng": -82.644268,
      "category": "museum",
      "clue": "A permanent home for Dale Chihuly's blown-glass art on Central Ave.",
      "photoUrl": null,
      "source": "overpass",
      "attribution": "OpenStreetMap ODbL"
    },
    {
      "id": "cycle-brewing",
      "name": "Cycle Brewing",
      "lat": 27.770906,
      "lng": -82.640922,
      "category": "bar",
      "clue": "A downtown craft brewery known for barrel-aged beers.",
      "photoUrl": null,
      "source": "overpass",
      "attribution": "OpenStreetMap ODbL"
    },
    {
      "id": "driftwood-roastery",
      "name": "Driftwood Roastery",
      "lat": 27.770944,
      "lng": -82.644365,
      "category": "cafe",
      "clue": "A local coffee roaster downtown.",
      "photoUrl": null,
      "source": "overpass",
      "attribution": "OpenStreetMap ODbL"
    },
    {
      "id": "duncan-mcclellan-gallery",
      "name": "Duncan McClellan Gallery",
      "lat": 27.765193,
      "lng": -82.665352,
      "category": "museum",
      "clue": "A renowned glass-art gallery in the Warehouse Arts District.",
      "photoUrl": null,
      "source": "overpass",
      "attribution": "OpenStreetMap ODbL"
    },
    {
      "id": "emerald-bar",
      "name": "Emerald Bar",
      "lat": 27.770905,
      "lng": -82.641174,
      "category": "bar",
      "clue": "A legendary Central Avenue dive bar since 1947.",
      "photoUrl": null,
      "source": "overpass",
      "attribution": "OpenStreetMap ODbL"
    },
    {
      "id": "fergs-sports-bar-grill",
      "name": "Ferg's Sports Bar & Grill",
      "lat": 27.770797,
      "lng": -82.652385,
      "category": "bar",
      "clue": "A sprawling sports bar across from the ballpark.",
      "photoUrl": null,
      "source": "overpass",
      "attribution": "OpenStreetMap ODbL"
    },
    {
      "id": "first-street-coffee",
      "name": "First Street Coffee",
      "lat": 27.767488,
      "lng": -82.634205,
      "category": "cafe",
      "clue": "A downtown specialty coffee shop.",
      "photoUrl": null,
      "source": "overpass",
      "attribution": "OpenStreetMap ODbL"
    },
    {
      "id": "florida-holocaust-museum",
      "name": "Florida Holocaust Museum",
      "lat": 27.770552,
      "lng": -82.640535,
      "category": "museum",
      "clue": "One of the largest Holocaust museums in the U.S., downtown.",
      "photoUrl": null,
      "source": "overpass",
      "attribution": "OpenStreetMap ODbL"
    },
    {
      "id": "fort-de-soto-county-park",
      "name": "Fort De Soto County Park",
      "lat": 27.630058,
      "lng": -82.722643,
      "category": "park",
      "clue": "A sprawling beach park with a historic fort at the mouth of Tampa Bay.",
      "photoUrl": null,
      "source": "overpass",
      "attribution": "OpenStreetMap ODbL; Wikidata CC0"
    },
    {
      "id": "fourth-street-shrimp-store",
      "name": "Fourth Street Shrimp Store",
      "lat": 27.782141,
      "lng": -82.638799,
      "category": "restaurant",
      "clue": "A quirky old-school seafood market & diner on 4th Street.",
      "photoUrl": null,
      "source": "overpass",
      "attribution": "OpenStreetMap ODbL"
    },
    {
      "id": "great-explorations-childrens-museum",
      "name": "Great Explorations Children's Museum",
      "lat": 27.790358,
      "lng": -82.637904,
      "category": "museum",
      "clue": "A hands-on children’s museum next to Sunken Gardens.",
      "photoUrl": null,
      "source": "overpass",
      "attribution": "OpenStreetMap ODbL"
    },
    {
      "id": "green-bench-brewing-co",
      "name": "Green Bench Brewing Co.",
      "lat": 27.771713,
      "lng": -82.650672,
      "category": "bar",
      "clue": "One of St. Pete's flagship craft breweries.",
      "photoUrl": null,
      "source": "overpass",
      "attribution": "OpenStreetMap ODbL"
    },
    {
      "id": "grove-surf-coffee",
      "name": "Grove Surf + Coffee",
      "lat": 27.74107,
      "lng": -82.751218,
      "category": "cafe",
      "clue": "A surf shop and coffee bar near the beach.",
      "photoUrl": null,
      "source": "overpass",
      "attribution": "OpenStreetMap ODbL"
    },
    {
      "id": "il-ritorno",
      "name": "Il Ritorno",
      "lat": 27.771462,
      "lng": -82.639599,
      "category": "restaurant",
      "clue": "A modern, award-winning Italian spot downtown.",
      "photoUrl": null,
      "source": "overpass",
      "attribution": "OpenStreetMap ODbL"
    },
    {
      "id": "imagine-museum",
      "name": "Imagine Museum",
      "lat": 27.771327,
      "lng": -82.659538,
      "category": "museum",
      "clue": "A museum devoted to contemporary studio glass art.",
      "photoUrl": null,
      "source": "overpass",
      "attribution": "OpenStreetMap ODbL"
    },
    {
      "id": "isla-del-sol",
      "name": "Isla Del Sol",
      "lat": 27.710822,
      "lng": -82.714633,
      "category": "golf_course",
      "clue": "A golf & yacht club on an island community south of downtown.",
      "photoUrl": null,
      "source": "overpass",
      "attribution": "OpenStreetMap ODbL"
    },
    {
      "id": "jannus-live",
      "name": "Jannus Live",
      "lat": 27.771922,
      "lng": -82.63607,
      "category": "venue",
      "clue": "An open-air downtown courtyard music venue, one of Florida’s oldest.",
      "photoUrl": null,
      "source": "overpass",
      "attribution": "OpenStreetMap ODbL; Wikidata CC0"
    },
    {
      "id": "kress-building",
      "name": "Kress Building",
      "lat": 27.771462,
      "lng": -82.639906,
      "category": "landmark",
      "clue": "A historic five-and-dime building on Central Avenue.",
      "photoUrl": null,
      "source": "overpass",
      "attribution": "OpenStreetMap ODbL"
    },
    {
      "id": "mandarin-hide",
      "name": "Mandarin Hide",
      "lat": 27.771391,
      "lng": -82.636117,
      "category": "bar",
      "clue": "A craft cocktail bar on Central Avenue.",
      "photoUrl": null,
      "source": "overpass",
      "attribution": "OpenStreetMap ODbL"
    },
    {
      "id": "mangrove-bay-golf-course",
      "name": "Mangrove Bay Golf Course",
      "lat": 27.833389,
      "lng": -82.622298,
      "category": "golf_course",
      "clue": "St. Pete's municipal golf course on Tampa Bay.",
      "photoUrl": null,
      "source": "overpass",
      "attribution": "OpenStreetMap ODbL"
    },
    {
      "id": "morean-arts-center",
      "name": "Morean Arts Center",
      "lat": 27.771458,
      "lng": -82.644205,
      "category": "museum",
      "clue": "A downtown arts center with a glass-blowing hot shop.",
      "photoUrl": null,
      "source": "overpass",
      "attribution": "OpenStreetMap ODbL"
    },
    {
      "id": "museum-of-fine-arts",
      "name": "Museum of Fine Arts",
      "lat": 27.774486,
      "lng": -82.631863,
      "category": "museum",
      "clue": "St. Pete's flagship fine-art museum on the downtown waterfront.",
      "photoUrl": null,
      "source": "overpass",
      "attribution": "OpenStreetMap ODbL"
    },
    {
      "id": "north-shore-kickball-fields",
      "name": "North Shore Park Kickball Fields",
      "lat": 27.7857,
      "lng": -82.6265,
      "category": "park",
      "clue": "The open rec/kickball fields at North Shore Park.",
      "photoUrl": null,
      "source": "manual",
      "attribution": "Manual (approx.)"
    },
    {
      "id": "north-shore-volleyball-courts",
      "name": "North Shore Park Volleyball Courts",
      "lat": 27.782942,
      "lng": -82.624619,
      "category": "park",
      "clue": "Sand volleyball courts at North Shore Park on the downtown waterfront.",
      "photoUrl": null,
      "source": "overpass",
      "attribution": "OpenStreetMap ODbL"
    },
    {
      "id": "old-northeast-tavern",
      "name": "Old Northeast Tavern",
      "lat": 27.779571,
      "lng": -82.635738,
      "category": "bar",
      "clue": "A neighborhood pub in the Historic Old Northeast.",
      "photoUrl": null,
      "source": "overpass",
      "attribution": "OpenStreetMap ODbL"
    },
    {
      "id": "parkshore-grill",
      "name": "Parkshore Grill",
      "lat": 27.775197,
      "lng": -82.632466,
      "category": "restaurant",
      "clue": "An upscale American restaurant on Beach Drive.",
      "photoUrl": null,
      "source": "overpass",
      "attribution": "OpenStreetMap ODbL"
    },
    {
      "id": "pasadena-yacht-country-club",
      "name": "Pasadena Yacht & Country Club",
      "lat": 27.750868,
      "lng": -82.721695,
      "category": "golf_course",
      "clue": "A gated golf & yacht country club near Gulfport.",
      "photoUrl": null,
      "source": "overpass",
      "attribution": "OpenStreetMap ODbL"
    },
    {
      "id": "ringside-cafe",
      "name": "Ringside Cafe",
      "lat": 27.771578,
      "lng": -82.635726,
      "category": "bar",
      "clue": "A historic live-music and jazz bar.",
      "photoUrl": null,
      "source": "overpass",
      "attribution": "OpenStreetMap ODbL"
    },
    {
      "id": "saint-pete-brewing-company",
      "name": "Saint Pete Brewing Company",
      "lat": 27.771893,
      "lng": -82.641033,
      "category": "bar",
      "clue": "A downtown craft brewery & taproom.",
      "photoUrl": null,
      "source": "overpass",
      "attribution": "OpenStreetMap ODbL"
    },
    {
      "id": "skyway-jacks",
      "name": "Skyway Jack's",
      "lat": 27.743545,
      "lng": -82.679843,
      "category": "restaurant",
      "clue": "A beloved no-frills breakfast institution.",
      "photoUrl": null,
      "source": "overpass",
      "attribution": "OpenStreetMap ODbL"
    },
    {
      "id": "snell-arcade",
      "name": "Snell Arcade",
      "lat": 27.771469,
      "lng": -82.638836,
      "category": "landmark",
      "clue": "An ornate 1920s Mediterranean Revival arcade building downtown.",
      "photoUrl": null,
      "source": "overpass",
      "attribution": "OpenStreetMap ODbL"
    },
    {
      "id": "st-pete-pier",
      "name": "St. Pete Pier",
      "lat": 27.773824,
      "lng": -82.624503,
      "category": "park",
      "clue": "The modern 26-acre pier district reaching into Tampa Bay.",
      "photoUrl": null,
      "source": "overpass",
      "attribution": "OpenStreetMap ODbL"
    },
    {
      "id": "st-petersburg-museum-of-history",
      "name": "St. Petersburg Museum of History",
      "lat": 27.773988,
      "lng": -82.630596,
      "category": "museum",
      "clue": "City history museum by the Pier — near the first airline flight site.",
      "photoUrl": null,
      "source": "overpass",
      "attribution": "OpenStreetMap ODbL"
    },
    {
      "id": "stillwaters-tavern",
      "name": "Stillwaters Tavern",
      "lat": 27.774162,
      "lng": -82.632808,
      "category": "restaurant",
      "clue": "A gastropub on Beach Drive downtown.",
      "photoUrl": null,
      "source": "overpass",
      "attribution": "OpenStreetMap ODbL"
    },
    {
      "id": "sunken-gardens",
      "name": "Sunken Gardens",
      "lat": 27.790043,
      "lng": -82.637204,
      "category": "attraction",
      "clue": "A 100-year-old botanical garden, one of St. Pete's oldest attractions.",
      "photoUrl": null,
      "source": "overpass",
      "attribution": "OpenStreetMap ODbL; Wikidata CC0"
    },
    {
      "id": "tampa-bay-watch-discovery-center",
      "name": "Tampa Bay Watch Discovery Center",
      "lat": 27.773639,
      "lng": -82.624868,
      "category": "museum",
      "clue": "A marine-education center out on the St. Pete Pier.",
      "photoUrl": null,
      "source": "overpass",
      "attribution": "OpenStreetMap ODbL"
    },
    {
      "id": "ted-peters-smoked-fish",
      "name": "Ted Peters Smoked Fish",
      "lat": 27.755996,
      "lng": -82.736917,
      "category": "restaurant",
      "clue": "A roadside institution famous for smoked mullet & German potato salad.",
      "photoUrl": null,
      "source": "overpass",
      "attribution": "OpenStreetMap ODbL"
    },
    {
      "id": "the-ale-and-the-witch",
      "name": "The Ale and the Witch",
      "lat": 27.773918,
      "lng": -82.633613,
      "category": "bar",
      "clue": "A craft-beer courtyard bar tucked off Central Avenue.",
      "photoUrl": null,
      "source": "overpass",
      "attribution": "OpenStreetMap ODbL"
    },
    {
      "id": "the-canopy",
      "name": "The Canopy",
      "lat": 27.776045,
      "lng": -82.632129,
      "category": "bar",
      "clue": "A rooftop bar atop The Birchwood with skyline views.",
      "photoUrl": null,
      "source": "overpass",
      "attribution": "OpenStreetMap ODbL"
    },
    {
      "id": "the-chattaway",
      "name": "The Chattaway",
      "lat": 27.748311,
      "lng": -82.638332,
      "category": "restaurant",
      "clue": "A historic open-air burger joint in a former trolley stop.",
      "photoUrl": null,
      "source": "overpass",
      "attribution": "OpenStreetMap ODbL"
    },
    {
      "id": "the-dali-museum",
      "name": "The Dalí Museum",
      "lat": 27.765978,
      "lng": -82.631477,
      "category": "museum",
      "clue": "Home to the largest Salvador Dalí collection outside Europe, under a glass 'enigma'.",
      "photoUrl": null,
      "source": "overpass",
      "attribution": "OpenStreetMap ODbL; Wikidata CC0"
    },
    {
      "id": "the-don-cesar",
      "name": "The Don CeSar",
      "lat": 27.7077,
      "lng": -82.7411,
      "category": "landmark",
      "clue": "The 'Pink Palace' — a historic 1928 resort hotel on the Gulf beach.",
      "photoUrl": null,
      "source": "manual",
      "attribution": "Wikidata CC0"
    },
    {
      "id": "the-james-museum",
      "name": "The James Museum",
      "lat": 27.771023,
      "lng": -82.634756,
      "category": "museum",
      "clue": "Western & wildlife art behind a carved-canyon entryway downtown.",
      "photoUrl": null,
      "source": "overpass",
      "attribution": "OpenStreetMap ODbL"
    },
    {
      "id": "the-moon-under-water",
      "name": "The Moon Under Water",
      "lat": 27.775843,
      "lng": -82.632037,
      "category": "restaurant",
      "clue": "A British-India-themed pub on Beach Drive.",
      "photoUrl": null,
      "source": "overpass",
      "attribution": "OpenStreetMap ODbL"
    },
    {
      "id": "the-palladium-theater",
      "name": "The Palladium Theater",
      "lat": 27.777878,
      "lng": -82.636798,
      "category": "venue",
      "clue": "A historic former church turned downtown concert hall.",
      "photoUrl": null,
      "source": "overpass",
      "attribution": "OpenStreetMap ODbL; Wikidata CC0"
    },
    {
      "id": "the-state-theatre",
      "name": "The State Theatre",
      "lat": 27.771458,
      "lng": -82.643367,
      "category": "venue",
      "clue": "A historic downtown live-music theater on Central Ave.",
      "photoUrl": null,
      "source": "overpass",
      "attribution": "OpenStreetMap ODbL"
    },
    {
      "id": "tropicana-field",
      "name": "Tropicana Field",
      "lat": 27.768127,
      "lng": -82.653276,
      "category": "venue",
      "clue": "The domed ballpark that was home to the Tampa Bay Rays.",
      "photoUrl": null,
      "source": "overpass",
      "attribution": "OpenStreetMap ODbL"
    },
    {
      "id": "twin-brooks-golf-course",
      "name": "Twin Brooks Golf Course",
      "lat": 27.746535,
      "lng": -82.686964,
      "category": "golf_course",
      "clue": "A city-run executive golf course & driving range.",
      "photoUrl": null,
      "source": "overpass",
      "attribution": "OpenStreetMap ODbL"
    },
    {
      "id": "vinoy-park",
      "name": "Vinoy Park",
      "lat": 27.780826,
      "lng": -82.625547,
      "category": "park",
      "clue": "A downtown waterfront park that hosts festivals and concerts.",
      "photoUrl": null,
      "source": "overpass",
      "attribution": "OpenStreetMap ODbL; Wikidata CC0"
    },
    {
      "id": "woodson-african-american-museum",
      "name": "Woodson African American Museum",
      "lat": 27.76084,
      "lng": -82.663899,
      "category": "museum",
      "clue": "St. Pete's African American history & culture museum.",
      "photoUrl": null,
      "source": "overpass",
      "attribution": "OpenStreetMap ODbL"
    }
  ]
}
