{
  "version": 1,
  "city": "State College, PA",
  "attribution": "Locations © OpenStreetMap contributors (ODbL) and Wikidata (CC0). Satellite imagery © Esri / Maxar.",
  "locations": [
    {
      "id": "3-dots",
      "name": "3 Dots",
      "lat": 40.794264,
      "lng": -77.859384,
      "category": "museum",
      "difficulty": "medium",
      "inPlay": true,
      "fameScore": 38,
      "clue": null,
      "photoUrl": null,
      "source": "overpass",
      "attribution": "OpenStreetMap ODbL"
    },
    {
      "id": "abba-java-coffeehouse",
      "name": "Abba Java Coffeehouse",
      "lat": 40.796237,
      "lng": -77.858331,
      "category": "cafe",
      "difficulty": "medium",
      "inPlay": true,
      "fameScore": 35,
      "clue": null,
      "photoUrl": null,
      "source": "overpass",
      "attribution": "OpenStreetMap ODbL"
    },
    {
      "id": "adams-apple",
      "name": "Adam's Apple",
      "lat": 40.795382,
      "lng": -77.859446,
      "category": "bar",
      "difficulty": "easy",
      "inPlay": true,
      "fameScore": 52,
      "clue": null,
      "photoUrl": null,
      "source": "overpass",
      "attribution": "OpenStreetMap ODbL"
    },
    {
      "id": "agape-coffee-house",
      "name": "Agape Coffee House",
      "lat": 40.792652,
      "lng": -77.862853,
      "category": "cafe",
      "difficulty": "hard",
      "inPlay": true,
      "fameScore": 25,
      "clue": null,
      "photoUrl": null,
      "source": "overpass",
      "attribution": "OpenStreetMap ODbL"
    },
    {
      "id": "air-quality-learning-and-demonstration-center",
      "name": "Air Quality Learning and Demonstration Center",
      "lat": 40.811072,
      "lng": -77.877083,
      "category": "attraction",
      "inPlay": false,
      "fameScore": 12,
      "clue": null,
      "photoUrl": null,
      "source": "overpass",
      "attribution": "OpenStreetMap ODbL"
    },
    {
      "id": "allen-street-grill",
      "name": "Allen Street Grill",
      "lat": 40.794226,
      "lng": -77.861651,
      "category": "restaurant",
      "difficulty": "easy",
      "inPlay": true,
      "fameScore": 62,
      "clue": null,
      "photoUrl": null,
      "source": "overpass",
      "attribution": "OpenStreetMap ODbL"
    },
    {
      "id": "allen-street-pizza",
      "name": "Allen Street Pizza",
      "lat": 40.793751,
      "lng": -77.860961,
      "category": "restaurant",
      "difficulty": "medium",
      "inPlay": true,
      "fameScore": 38,
      "clue": null,
      "photoUrl": null,
      "source": "overpass",
      "attribution": "OpenStreetMap ODbL"
    },
    {
      "id": "alumni-garden",
      "name": "Alumni Garden",
      "lat": 40.79471,
      "lng": -77.863417,
      "category": "park",
      "difficulty": "medium",
      "inPlay": true,
      "fameScore": 35,
      "clue": null,
      "photoUrl": null,
      "source": "overpass",
      "attribution": "OpenStreetMap ODbL"
    },
    {
      "id": "antifragile-brewing-co",
      "name": "Antifragile Brewing Co",
      "lat": 40.796703,
      "lng": -77.857438,
      "category": "restaurant",
      "difficulty": "medium",
      "inPlay": true,
      "fameScore": 42,
      "clue": null,
      "photoUrl": null,
      "source": "overpass",
      "attribution": "OpenStreetMap ODbL"
    },
    {
      "id": "armsby-respiration-calorimeter-museum",
      "name": "Armsby Respiration Calorimeter Museum",
      "lat": 40.800415,
      "lng": -77.864556,
      "category": "museum",
      "inPlay": false,
      "fameScore": 14,
      "clue": null,
      "photoUrl": null,
      "source": "overpass",
      "attribution": "OpenStreetMap ODbL"
    },
    {
      "id": "as-pub",
      "name": "A's Pub",
      "lat": 40.793884,
      "lng": -77.86115,
      "category": "bar",
      "difficulty": "medium",
      "inPlay": true,
      "fameScore": 42,
      "clue": null,
      "photoUrl": null,
      "source": "overpass",
      "attribution": "OpenStreetMap ODbL"
    },
    {
      "id": "atom-first-seen",
      "name": "Atom First \"Seen\"",
      "lat": 40.798727,
      "lng": -77.861811,
      "category": "landmark",
      "inPlay": false,
      "fameScore": 20,
      "clue": null,
      "photoUrl": null,
      "source": "overpass",
      "attribution": "OpenStreetMap ODbL"
    },
    {
      "id": "bagel-crust-beaver",
      "name": "Bagel Crust - Beaver",
      "lat": 40.792168,
      "lng": -77.862213,
      "category": "cafe",
      "difficulty": "easy",
      "inPlay": true,
      "fameScore": 48,
      "clue": null,
      "photoUrl": null,
      "source": "overpass",
      "attribution": "OpenStreetMap ODbL"
    },
    {
      "id": "bagel-crust-calder",
      "name": "Bagel Crust - Calder",
      "lat": 40.796797,
      "lng": -77.857303,
      "category": "cafe",
      "difficulty": "easy",
      "inPlay": true,
      "fameScore": 55,
      "clue": null,
      "photoUrl": null,
      "source": "overpass",
      "attribution": "OpenStreetMap ODbL"
    },
    {
      "id": "beaver-stadium",
      "name": "Beaver Stadium",
      "lat": 40.812081,
      "lng": -77.856074,
      "category": "venue",
      "difficulty": "easy",
      "inPlay": true,
      "fameScore": 98,
      "clue": null,
      "photoUrl": null,
      "source": "overpass",
      "attribution": "OpenStreetMap ODbL; Wikidata CC0"
    },
    {
      "id": "bee-and-pollinator-garden",
      "name": "Bee and Pollinator Garden",
      "lat": 40.805059,
      "lng": -77.869156,
      "category": "park",
      "inPlay": false,
      "fameScore": 22,
      "clue": null,
      "photoUrl": null,
      "source": "overpass",
      "attribution": "OpenStreetMap ODbL"
    },
    {
      "id": "beijing-osaka",
      "name": "Beijing & Osaka",
      "lat": 40.798854,
      "lng": -77.855557,
      "category": "restaurant",
      "difficulty": "medium",
      "inPlay": true,
      "fameScore": 35,
      "clue": null,
      "photoUrl": null,
      "source": "overpass",
      "attribution": "OpenStreetMap ODbL"
    },
    {
      "id": "benny-leones",
      "name": "Benny Leone’s",
      "lat": 40.793394,
      "lng": -77.86237,
      "category": "restaurant",
      "inPlay": false,
      "fameScore": 20,
      "clue": null,
      "photoUrl": null,
      "source": "overpass",
      "attribution": "OpenStreetMap ODbL"
    },
    {
      "id": "big-bowl-noodle-house",
      "name": "Big Bowl Noodle House",
      "lat": 40.798065,
      "lng": -77.85654,
      "category": "restaurant",
      "difficulty": "easy",
      "inPlay": true,
      "fameScore": 52,
      "clue": null,
      "photoUrl": null,
      "source": "overpass",
      "attribution": "OpenStreetMap ODbL"
    },
    {
      "id": "big-deans-hot-chicken",
      "name": "Big Dean’s Hot Chicken",
      "lat": 40.793279,
      "lng": -77.862932,
      "category": "restaurant",
      "difficulty": "medium",
      "inPlay": true,
      "fameScore": 38,
      "clue": null,
      "photoUrl": null,
      "source": "overpass",
      "attribution": "OpenStreetMap ODbL"
    },
    {
      "id": "bill-pickles-tap-room",
      "name": "Bill Pickle's Tap Room",
      "lat": 40.794126,
      "lng": -77.861413,
      "category": "bar",
      "difficulty": "easy",
      "inPlay": true,
      "fameScore": 65,
      "clue": null,
      "photoUrl": null,
      "source": "overpass",
      "attribution": "OpenStreetMap ODbL"
    },
    {
      "id": "bistrozine",
      "name": "Bistrozine",
      "lat": 40.797862,
      "lng": -77.856017,
      "category": "restaurant",
      "difficulty": "medium",
      "inPlay": true,
      "fameScore": 42,
      "clue": null,
      "photoUrl": null,
      "source": "overpass",
      "attribution": "OpenStreetMap ODbL"
    },
    {
      "id": "blue-band-practice-im-fields",
      "name": "Blue Band Practice IM Fields",
      "lat": 40.810321,
      "lng": -77.864746,
      "category": "park",
      "difficulty": "hard",
      "inPlay": true,
      "fameScore": 28,
      "clue": null,
      "photoUrl": null,
      "source": "overpass",
      "attribution": "OpenStreetMap ODbL"
    },
    {
      "id": "blue-course",
      "name": "Blue Course",
      "lat": 40.786393,
      "lng": -77.883662,
      "category": "golf_course",
      "difficulty": "easy",
      "inPlay": true,
      "fameScore": 55,
      "clue": null,
      "photoUrl": null,
      "source": "overpass",
      "attribution": "OpenStreetMap ODbL"
    },
    {
      "id": "brothers-pizza",
      "name": "Brothers Pizza",
      "lat": 40.787464,
      "lng": -77.856365,
      "category": "restaurant",
      "difficulty": "easy",
      "inPlay": true,
      "fameScore": 45,
      "clue": null,
      "photoUrl": null,
      "source": "overpass",
      "attribution": "OpenStreetMap ODbL"
    },
    {
      "id": "bryce-jordan-center",
      "name": "Bryce Jordan Center",
      "lat": 40.808583,
      "lng": -77.855449,
      "category": "venue",
      "difficulty": "easy",
      "inPlay": true,
      "fameScore": 88,
      "clue": null,
      "photoUrl": null,
      "source": "overpass",
      "attribution": "OpenStreetMap ODbL; Wikidata CC0"
    },
    {
      "id": "butterfly-garden",
      "name": "Butterfly Garden",
      "lat": 40.800524,
      "lng": -77.89616,
      "category": "park",
      "difficulty": "easy",
      "inPlay": true,
      "fameScore": 52,
      "clue": null,
      "photoUrl": null,
      "source": "overpass",
      "attribution": "OpenStreetMap ODbL"
    },
    {
      "id": "cafe-210-west",
      "name": "Cafe 210 West",
      "lat": 40.793177,
      "lng": -77.863004,
      "category": "bar",
      "difficulty": "easy",
      "inPlay": true,
      "fameScore": 72,
      "clue": null,
      "photoUrl": null,
      "source": "overpass",
      "attribution": "OpenStreetMap ODbL"
    },
    {
      "id": "cafe-alina",
      "name": "Cafe Alina",
      "lat": 40.797985,
      "lng": -77.855861,
      "category": "restaurant",
      "difficulty": "medium",
      "inPlay": true,
      "fameScore": 35,
      "clue": null,
      "photoUrl": null,
      "source": "overpass",
      "attribution": "OpenStreetMap ODbL"
    },
    {
      "id": "cafe-laura",
      "name": "Cafe Laura",
      "lat": 40.798767,
      "lng": -77.870114,
      "category": "restaurant",
      "difficulty": "easy",
      "inPlay": true,
      "fameScore": 48,
      "clue": null,
      "photoUrl": null,
      "source": "overpass",
      "attribution": "OpenStreetMap ODbL"
    },
    {
      "id": "cafe-lemont",
      "name": "Cafe Lemont",
      "lat": 40.808943,
      "lng": -77.818817,
      "category": "cafe",
      "difficulty": "medium",
      "inPlay": true,
      "fameScore": 30,
      "clue": null,
      "photoUrl": null,
      "source": "overpass",
      "attribution": "OpenStreetMap ODbL"
    },
    {
      "id": "cafe-wow",
      "name": "Cafe Wow",
      "lat": 40.795944,
      "lng": -77.859076,
      "category": "cafe",
      "difficulty": "medium",
      "inPlay": true,
      "fameScore": 38,
      "clue": null,
      "photoUrl": null,
      "source": "overpass",
      "attribution": "OpenStreetMap ODbL"
    },
    {
      "id": "cairns-crossing",
      "name": "Cairns Crossing",
      "lat": 40.810027,
      "lng": -77.820535,
      "category": "park",
      "inPlay": false,
      "fameScore": 18,
      "clue": null,
      "photoUrl": null,
      "source": "overpass",
      "attribution": "OpenStreetMap ODbL"
    },
    {
      "id": "camelot",
      "name": "Camelot",
      "lat": 40.789077,
      "lng": -77.857692,
      "category": "landmark",
      "difficulty": "hard",
      "inPlay": true,
      "fameScore": 28,
      "clue": null,
      "photoUrl": null,
      "source": "overpass",
      "attribution": "OpenStreetMap ODbL; Wikidata CC0"
    },
    {
      "id": "canyon-pizza",
      "name": "Canyon Pizza",
      "lat": 40.794902,
      "lng": -77.858522,
      "category": "restaurant",
      "difficulty": "easy",
      "inPlay": true,
      "fameScore": 68,
      "clue": null,
      "photoUrl": null,
      "source": "overpass",
      "attribution": "OpenStreetMap ODbL"
    },
    {
      "id": "canyon-wings",
      "name": "Canyon Wings",
      "lat": 40.795034,
      "lng": -77.858355,
      "category": "restaurant",
      "difficulty": "easy",
      "inPlay": true,
      "fameScore": 65,
      "clue": null,
      "photoUrl": null,
      "source": "overpass",
      "attribution": "OpenStreetMap ODbL"
    },
    {
      "id": "carters-table",
      "name": "Carter's Table",
      "lat": 40.79718,
      "lng": -77.855738,
      "category": "restaurant",
      "difficulty": "medium",
      "inPlay": true,
      "fameScore": 30,
      "clue": null,
      "photoUrl": null,
      "source": "overpass",
      "attribution": "OpenStreetMap ODbL"
    },
    {
      "id": "celebrities-bar-and-grill",
      "name": "Celebrities Bar and Grill",
      "lat": 40.78473,
      "lng": -77.839347,
      "category": "restaurant",
      "inPlay": false,
      "fameScore": 20,
      "clue": null,
      "photoUrl": null,
      "source": "overpass",
      "attribution": "OpenStreetMap ODbL"
    },
    {
      "id": "central-reservation",
      "name": "Central Reservation",
      "lat": 40.793557,
      "lng": -77.860311,
      "category": "restaurant",
      "difficulty": "medium",
      "inPlay": true,
      "fameScore": 35,
      "clue": null,
      "photoUrl": null,
      "source": "overpass",
      "attribution": "OpenStreetMap ODbL"
    },
    {
      "id": "centre-furnace",
      "name": "Centre Furnace",
      "lat": 40.805241,
      "lng": -77.843469,
      "category": "landmark",
      "difficulty": "easy",
      "inPlay": true,
      "fameScore": 55,
      "clue": null,
      "photoUrl": null,
      "source": "overpass",
      "attribution": "OpenStreetMap ODbL; Wikidata CC0"
    },
    {
      "id": "centre-furnace-mansion",
      "name": "Centre Furnace Mansion",
      "lat": 40.806671,
      "lng": -77.842145,
      "category": "museum",
      "difficulty": "easy",
      "inPlay": true,
      "fameScore": 60,
      "clue": null,
      "photoUrl": null,
      "source": "overpass",
      "attribution": "OpenStreetMap ODbL; Wikidata CC0"
    },
    {
      "id": "centre-hills-country-club",
      "name": "Centre Hills Country Club",
      "lat": 40.793,
      "lng": -77.821986,
      "category": "golf_course",
      "difficulty": "easy",
      "inPlay": true,
      "fameScore": 55,
      "clue": null,
      "photoUrl": null,
      "source": "overpass",
      "attribution": "OpenStreetMap ODbL"
    },
    {
      "id": "champs-downtown",
      "name": "Champ's Downtown",
      "lat": 40.793754,
      "lng": -77.860549,
      "category": "bar",
      "difficulty": "easy",
      "inPlay": true,
      "fameScore": 68,
      "clue": null,
      "photoUrl": null,
      "source": "overpass",
      "attribution": "OpenStreetMap ODbL"
    },
    {
      "id": "champs-sports-grill",
      "name": "Champ's Sports Grill",
      "lat": 40.808017,
      "lng": -77.892907,
      "category": "restaurant",
      "difficulty": "easy",
      "inPlay": true,
      "fameScore": 72,
      "clue": null,
      "photoUrl": null,
      "source": "overpass",
      "attribution": "OpenStreetMap ODbL"
    },
    {
      "id": "chew-chew-bun",
      "name": "Chew Chew Bun",
      "lat": 40.79382,
      "lng": -77.859971,
      "category": "cafe",
      "difficulty": "medium",
      "inPlay": true,
      "fameScore": 40,
      "clue": null,
      "photoUrl": null,
      "source": "overpass",
      "attribution": "OpenStreetMap ODbL"
    },
    {
      "id": "chick-2",
      "name": "Chick 2",
      "lat": 40.794908,
      "lng": -77.860745,
      "category": "restaurant",
      "difficulty": "hard",
      "inPlay": true,
      "fameScore": 22,
      "clue": null,
      "photoUrl": null,
      "source": "overpass",
      "attribution": "OpenStreetMap ODbL"
    },
    {
      "id": "chumleys",
      "name": "Chumley's",
      "lat": 40.794124,
      "lng": -77.861772,
      "category": "bar",
      "difficulty": "easy",
      "inPlay": true,
      "fameScore": 60,
      "clue": null,
      "photoUrl": null,
      "source": "overpass",
      "attribution": "OpenStreetMap ODbL"
    },
    {
      "id": "cluck-catch",
      "name": "Cluck & Catch",
      "lat": 40.781967,
      "lng": -77.853225,
      "category": "restaurant",
      "inPlay": false,
      "fameScore": 18,
      "clue": null,
      "photoUrl": null,
      "source": "overpass",
      "attribution": "OpenStreetMap ODbL"
    },
    {
      "id": "college-buffet",
      "name": "College Buffet",
      "lat": 40.810315,
      "lng": -77.894921,
      "category": "restaurant",
      "difficulty": "medium",
      "inPlay": true,
      "fameScore": 45,
      "clue": null,
      "photoUrl": null,
      "source": "overpass",
      "attribution": "OpenStreetMap ODbL"
    },
    {
      "id": "cozy-thai",
      "name": "Cozy Thai",
      "lat": 40.7927,
      "lng": -77.859433,
      "category": "restaurant",
      "difficulty": "easy",
      "inPlay": true,
      "fameScore": 58,
      "clue": null,
      "photoUrl": null,
      "source": "overpass",
      "attribution": "OpenStreetMap ODbL"
    },
    {
      "id": "dagu-rice-noodle",
      "name": "Dagu Rice Noodle",
      "lat": 40.794992,
      "lng": -77.860626,
      "category": "restaurant",
      "inPlay": false,
      "fameScore": 22,
      "clue": null,
      "photoUrl": null,
      "source": "overpass",
      "attribution": "OpenStreetMap ODbL"
    },
    {
      "id": "dalevue-park",
      "name": "Dalevue Park",
      "lat": 40.798029,
      "lng": -77.824891,
      "category": "park",
      "difficulty": "medium",
      "inPlay": true,
      "fameScore": 30,
      "clue": null,
      "photoUrl": null,
      "source": "overpass",
      "attribution": "OpenStreetMap ODbL"
    },
    {
      "id": "delhi-junction",
      "name": "Delhi Junction",
      "lat": 40.795922,
      "lng": -77.857901,
      "category": "restaurant",
      "difficulty": "hard",
      "inPlay": true,
      "fameScore": 28,
      "clue": null,
      "photoUrl": null,
      "source": "overpass",
      "attribution": "OpenStreetMap ODbL"
    },
    {
      "id": "discovery-space",
      "name": "Discovery Space",
      "lat": 40.802018,
      "lng": -77.882318,
      "category": "museum",
      "difficulty": "easy",
      "inPlay": true,
      "fameScore": 52,
      "clue": null,
      "photoUrl": null,
      "source": "overpass",
      "attribution": "OpenStreetMap ODbL"
    },
    {
      "id": "doggies-pizza",
      "name": "Doggie's Pizza",
      "lat": 40.794779,
      "lng": -77.860232,
      "category": "restaurant",
      "difficulty": "medium",
      "inPlay": true,
      "fameScore": 38,
      "clue": null,
      "photoUrl": null,
      "source": "overpass",
      "attribution": "OpenStreetMap ODbL"
    },
    {
      "id": "doggies-pub",
      "name": "Doggie's Pub",
      "lat": 40.795044,
      "lng": -77.860254,
      "category": "bar",
      "difficulty": "medium",
      "inPlay": true,
      "fameScore": 42,
      "clue": null,
      "photoUrl": null,
      "source": "overpass",
      "attribution": "OpenStreetMap ODbL"
    },
    {
      "id": "douglas-albert-gallery",
      "name": "Douglas Albert Gallery",
      "lat": 40.795599,
      "lng": -77.859452,
      "category": "museum",
      "difficulty": "medium",
      "inPlay": true,
      "fameScore": 35,
      "clue": null,
      "photoUrl": null,
      "source": "overpass",
      "attribution": "OpenStreetMap ODbL"
    },
    {
      "id": "dulce-luca-cafe",
      "name": "Dulce Luca Café",
      "lat": 40.79525,
      "lng": -77.859368,
      "category": "restaurant",
      "difficulty": "hard",
      "inPlay": true,
      "fameScore": 28,
      "clue": null,
      "photoUrl": null,
      "source": "overpass",
      "attribution": "OpenStreetMap ODbL"
    },
    {
      "id": "east-fairmount-park",
      "name": "East Fairmount Park",
      "lat": 40.797751,
      "lng": -77.850717,
      "category": "park",
      "difficulty": "hard",
      "inPlay": true,
      "fameScore": 22,
      "clue": null,
      "photoUrl": null,
      "source": "overpass",
      "attribution": "OpenStreetMap ODbL"
    },
    {
      "id": "eden-valley-coffee-company",
      "name": "Eden Valley Coffee Company",
      "lat": 40.810699,
      "lng": -77.828423,
      "category": "cafe",
      "difficulty": "hard",
      "inPlay": true,
      "fameScore": 22,
      "clue": null,
      "photoUrl": null,
      "source": "overpass",
      "attribution": "OpenStreetMap ODbL"
    },
    {
      "id": "edge-pollock",
      "name": "Edge @ Pollock",
      "lat": 40.801896,
      "lng": -77.85647,
      "category": "restaurant",
      "difficulty": "hard",
      "inPlay": true,
      "fameScore": 30,
      "clue": null,
      "photoUrl": null,
      "source": "overpass",
      "attribution": "OpenStreetMap ODbL"
    },
    {
      "id": "edwin-w-zoller-gallery",
      "name": "Edwin W. Zoller Gallery",
      "lat": 40.8009,
      "lng": -77.865264,
      "category": "museum",
      "difficulty": "medium",
      "inPlay": true,
      "fameScore": 32,
      "clue": null,
      "photoUrl": null,
      "source": "overpass",
      "attribution": "OpenStreetMap ODbL"
    },
    {
      "id": "el-jefes-taqueria",
      "name": "El Jefe's Taqueria",
      "lat": 40.797126,
      "lng": -77.856814,
      "category": "restaurant",
      "difficulty": "medium",
      "inPlay": true,
      "fameScore": 40,
      "clue": null,
      "photoUrl": null,
      "source": "overpass",
      "attribution": "OpenStreetMap ODbL"
    },
    {
      "id": "elxir-coffee-roasters",
      "name": "Elxir Coffee Roasters",
      "lat": 40.79301,
      "lng": -77.861053,
      "category": "cafe",
      "difficulty": "easy",
      "inPlay": true,
      "fameScore": 45,
      "clue": null,
      "photoUrl": null,
      "source": "overpass",
      "attribution": "OpenStreetMap ODbL"
    },
    {
      "id": "ems-museum-and-art-gallery",
      "name": "EMS Museum and Art Gallery",
      "lat": 40.794143,
      "lng": -77.865447,
      "category": "museum",
      "difficulty": "medium",
      "inPlay": true,
      "fameScore": 42,
      "clue": null,
      "photoUrl": null,
      "source": "overpass",
      "attribution": "OpenStreetMap ODbL"
    },
    {
      "id": "faccia-luna",
      "name": "Faccia Luna",
      "lat": 40.784802,
      "lng": -77.847392,
      "category": "restaurant",
      "difficulty": "easy",
      "inPlay": true,
      "fameScore": 62,
      "clue": null,
      "photoUrl": null,
      "source": "overpass",
      "attribution": "OpenStreetMap ODbL"
    },
    {
      "id": "faculty-cottages",
      "name": "Faculty Cottages",
      "lat": 40.799813,
      "lng": -77.861772,
      "category": "landmark",
      "difficulty": "medium",
      "inPlay": true,
      "fameScore": 38,
      "clue": null,
      "photoUrl": null,
      "source": "overpass",
      "attribution": "OpenStreetMap ODbL"
    },
    {
      "id": "famous-ernies-steaks",
      "name": "Famous Ernie's Steaks",
      "lat": 40.793743,
      "lng": -77.860076,
      "category": "restaurant",
      "difficulty": "medium",
      "inPlay": true,
      "fameScore": 45,
      "clue": null,
      "photoUrl": null,
      "source": "overpass",
      "attribution": "OpenStreetMap ODbL"
    },
    {
      "id": "fatoum-bistro",
      "name": "Fatoum Bistro",
      "lat": 40.781986,
      "lng": -77.853189,
      "category": "restaurant",
      "difficulty": "hard",
      "inPlay": true,
      "fameScore": 22,
      "clue": null,
      "photoUrl": null,
      "source": "overpass",
      "attribution": "OpenStreetMap ODbL"
    },
    {
      "id": "federal-taphouse",
      "name": "Federal Taphouse",
      "lat": 40.792738,
      "lng": -77.862086,
      "category": "restaurant",
      "difficulty": "easy",
      "inPlay": true,
      "fameScore": 52,
      "clue": null,
      "photoUrl": null,
      "source": "overpass",
      "attribution": "OpenStreetMap ODbL"
    },
    {
      "id": "fiddlehead",
      "name": "Fiddlehead",
      "lat": 40.793592,
      "lng": -77.862498,
      "category": "restaurant",
      "difficulty": "medium",
      "inPlay": true,
      "fameScore": 42,
      "clue": null,
      "photoUrl": null,
      "source": "overpass",
      "attribution": "OpenStreetMap ODbL"
    },
    {
      "id": "fire-fig-grill",
      "name": "Fire & Fig Grill",
      "lat": 40.801404,
      "lng": -77.880615,
      "category": "restaurant",
      "difficulty": "hard",
      "inPlay": true,
      "fameScore": 22,
      "clue": null,
      "photoUrl": null,
      "source": "overpass",
      "attribution": "OpenStreetMap ODbL"
    },
    {
      "id": "flipps",
      "name": "Flipps",
      "lat": 40.806496,
      "lng": -77.862148,
      "category": "restaurant",
      "difficulty": "hard",
      "inPlay": true,
      "fameScore": 30,
      "clue": null,
      "photoUrl": null,
      "source": "overpass",
      "attribution": "OpenStreetMap ODbL"
    },
    {
      "id": "foundry-park",
      "name": "Foundry Park",
      "lat": 40.793853,
      "lng": -77.863449,
      "category": "park",
      "difficulty": "medium",
      "inPlay": true,
      "fameScore": 32,
      "clue": null,
      "photoUrl": null,
      "source": "overpass",
      "attribution": "OpenStreetMap ODbL"
    },
    {
      "id": "fresco-pollock",
      "name": "Fresco @ Pollock",
      "lat": 40.801933,
      "lng": -77.856227,
      "category": "restaurant",
      "inPlay": false,
      "fameScore": 18,
      "clue": null,
      "photoUrl": null,
      "source": "overpass",
      "attribution": "OpenStreetMap ODbL"
    },
    {
      "id": "fresh-bites-pizza",
      "name": "Fresh Bites Pizza",
      "lat": 40.793105,
      "lng": -77.857057,
      "category": "restaurant",
      "inPlay": false,
      "fameScore": 15,
      "clue": null,
      "photoUrl": null,
      "source": "overpass",
      "attribution": "OpenStreetMap ODbL"
    },
    {
      "id": "fuji-jade-garden-my-thai",
      "name": "Fuji Jade Garden & My Thai",
      "lat": 40.803564,
      "lng": -77.888087,
      "category": "restaurant",
      "difficulty": "easy",
      "inPlay": true,
      "fameScore": 45,
      "clue": null,
      "photoUrl": null,
      "source": "overpass",
      "attribution": "OpenStreetMap ODbL"
    },
    {
      "id": "general-james-a-beaver-memorial",
      "name": "General James A. Beaver Memorial",
      "lat": 40.8123,
      "lng": -77.85415,
      "category": "landmark",
      "inPlay": false,
      "fameScore": 20,
      "clue": null,
      "photoUrl": null,
      "source": "overpass",
      "attribution": "OpenStreetMap ODbL"
    },
    {
      "id": "giuseppes-pizzeria",
      "name": "Giuseppe's Pizzeria",
      "lat": 40.795356,
      "lng": -77.86016,
      "category": "restaurant",
      "difficulty": "hard",
      "inPlay": true,
      "fameScore": 28,
      "clue": null,
      "photoUrl": null,
      "source": "overpass",
      "attribution": "OpenStreetMap ODbL"
    },
    {
      "id": "glenn-park",
      "name": "Glenn Park",
      "lat": 40.807761,
      "lng": -77.82155,
      "category": "park",
      "inPlay": false,
      "fameScore": 20,
      "clue": null,
      "photoUrl": null,
      "source": "overpass",
      "attribution": "OpenStreetMap ODbL"
    },
    {
      "id": "good-day-cafe",
      "name": "Good Day Cafe",
      "lat": 40.78678,
      "lng": -77.857337,
      "category": "cafe",
      "difficulty": "medium",
      "inPlay": true,
      "fameScore": 32,
      "clue": null,
      "photoUrl": null,
      "source": "overpass",
      "attribution": "OpenStreetMap ODbL"
    },
    {
      "id": "green-bowl",
      "name": "Green Bowl",
      "lat": 40.792876,
      "lng": -77.861231,
      "category": "restaurant",
      "difficulty": "easy",
      "inPlay": true,
      "fameScore": 48,
      "clue": null,
      "photoUrl": null,
      "source": "overpass",
      "attribution": "OpenStreetMap ODbL"
    },
    {
      "id": "gudong-hot-pot-delivery",
      "name": "Gudong Hot Pot Delivery",
      "lat": 40.801943,
      "lng": -77.88147,
      "category": "restaurant",
      "difficulty": "hard",
      "inPlay": true,
      "fameScore": 22,
      "clue": null,
      "photoUrl": null,
      "source": "overpass",
      "attribution": "OpenStreetMap ODbL"
    },
    {
      "id": "halal-cart",
      "name": "Halal Cart",
      "lat": 40.802928,
      "lng": -77.866325,
      "category": "cafe",
      "difficulty": "hard",
      "inPlay": true,
      "fameScore": 25,
      "clue": null,
      "photoUrl": null,
      "source": "overpass",
      "attribution": "OpenStreetMap ODbL"
    },
    {
      "id": "happy-valley-brewing-company",
      "name": "Happy Valley Brewing Company",
      "lat": 40.810628,
      "lng": -77.829339,
      "category": "restaurant",
      "difficulty": "easy",
      "inPlay": true,
      "fameScore": 60,
      "clue": null,
      "photoUrl": null,
      "source": "overpass",
      "attribution": "OpenStreetMap ODbL"
    },
    {
      "id": "happy-valley-live",
      "name": "Happy Valley Live",
      "lat": 40.806531,
      "lng": -77.840785,
      "category": "restaurant",
      "difficulty": "hard",
      "inPlay": true,
      "fameScore": 25,
      "clue": null,
      "photoUrl": null,
      "source": "overpass",
      "attribution": "OpenStreetMap ODbL"
    },
    {
      "id": "harris-acres-parklet",
      "name": "Harris Acres Parklet",
      "lat": 40.779151,
      "lng": -77.817593,
      "category": "park",
      "inPlay": false,
      "fameScore": 14,
      "clue": null,
      "photoUrl": null,
      "source": "overpass",
      "attribution": "OpenStreetMap ODbL"
    },
    {
      "id": "hawaiian-poke-bowl-pho-cafe",
      "name": "Hawaiian Poke Bowl & Pho Cafe",
      "lat": 40.791223,
      "lng": -77.863042,
      "category": "restaurant",
      "difficulty": "hard",
      "inPlay": true,
      "fameScore": 28,
      "clue": null,
      "photoUrl": null,
      "source": "overpass",
      "attribution": "OpenStreetMap ODbL"
    },
    {
      "id": "haymarket-park",
      "name": "Haymarket Park",
      "lat": 40.772779,
      "lng": -77.874638,
      "category": "park",
      "difficulty": "hard",
      "inPlay": true,
      "fameScore": 28,
      "clue": null,
      "photoUrl": null,
      "source": "overpass",
      "attribution": "OpenStreetMap ODbL"
    },
    {
      "id": "hibachi-san",
      "name": "HIBACHI-SAN",
      "lat": 40.798262,
      "lng": -77.861079,
      "category": "restaurant",
      "difficulty": "hard",
      "inPlay": true,
      "fameScore": 30,
      "clue": null,
      "photoUrl": null,
      "source": "overpass",
      "attribution": "OpenStreetMap ODbL"
    },
    {
      "id": "high-point-park",
      "name": "High Point Park",
      "lat": 40.771539,
      "lng": -77.859383,
      "category": "park",
      "difficulty": "medium",
      "inPlay": true,
      "fameScore": 35,
      "clue": null,
      "photoUrl": null,
      "source": "overpass",
      "attribution": "OpenStreetMap ODbL"
    },
    {
      "id": "highlands-historic-district",
      "name": "Highlands Historic District",
      "lat": 40.793002,
      "lng": -77.853149,
      "category": "landmark",
      "difficulty": "hard",
      "inPlay": true,
      "fameScore": 28,
      "clue": null,
      "photoUrl": null,
      "source": "overpass",
      "attribution": "OpenStreetMap ODbL; Wikidata CC0"
    },
    {
      "id": "hiway-pizza-pub",
      "name": "HiWay Pizza Pub",
      "lat": 40.784146,
      "lng": -77.875299,
      "category": "restaurant",
      "difficulty": "easy",
      "inPlay": true,
      "fameScore": 55,
      "clue": null,
      "photoUrl": null,
      "source": "overpass",
      "attribution": "OpenStreetMap ODbL"
    },
    {
      "id": "ho-smith-botanic-gardens",
      "name": "H.O. Smith Botanic Gardens",
      "lat": 40.805544,
      "lng": -77.867637,
      "category": "park",
      "difficulty": "easy",
      "inPlay": true,
      "fameScore": 58,
      "clue": null,
      "photoUrl": null,
      "source": "overpass",
      "attribution": "OpenStreetMap ODbL"
    },
    {
      "id": "holmes-foster-park",
      "name": "Holmes-Foster Park",
      "lat": 40.783163,
      "lng": -77.864831,
      "category": "park",
      "difficulty": "medium",
      "inPlay": true,
      "fameScore": 38,
      "clue": null,
      "photoUrl": null,
      "source": "overpass",
      "attribution": "OpenStreetMap ODbL; Wikidata CC0"
    },
    {
      "id": "hosss-steak-sea-house",
      "name": "Hoss's Steak & Sea House",
      "lat": 40.80595,
      "lng": -77.889514,
      "category": "restaurant",
      "difficulty": "easy",
      "inPlay": true,
      "fameScore": 55,
      "clue": null,
      "photoUrl": null,
      "source": "overpass",
      "attribution": "OpenStreetMap ODbL"
    },
    {
      "id": "india-pavilion",
      "name": "India Pavilion",
      "lat": 40.795415,
      "lng": -77.859132,
      "category": "restaurant",
      "difficulty": "easy",
      "inPlay": true,
      "fameScore": 58,
      "clue": null,
      "photoUrl": null,
      "source": "overpass",
      "attribution": "OpenStreetMap ODbL"
    },
    {
      "id": "irvings-bagels",
      "name": "Irving's Bagels",
      "lat": 40.794556,
      "lng": -77.861226,
      "category": "cafe",
      "difficulty": "easy",
      "inPlay": true,
      "fameScore": 65,
      "clue": null,
      "photoUrl": null,
      "source": "overpass",
      "attribution": "OpenStreetMap ODbL"
    },
    {
      "id": "john-i-thompson-grain-elevator-and-coal-sheds",
      "name": "John I. Thompson Grain Elevator and Coal Sheds",
      "lat": 40.810529,
      "lng": -77.817242,
      "category": "landmark",
      "inPlay": false,
      "fameScore": 22,
      "clue": null,
      "photoUrl": null,
      "source": "overpass",
      "attribution": "OpenStreetMap ODbL"
    },
    {
      "id": "k2-roots",
      "name": "K2 Roots",
      "lat": 40.79769,
      "lng": -77.856752,
      "category": "restaurant",
      "difficulty": "medium",
      "inPlay": true,
      "fameScore": 38,
      "clue": null,
      "photoUrl": null,
      "source": "overpass",
      "attribution": "OpenStreetMap ODbL"
    },
    {
      "id": "kamrai-thai-sushi",
      "name": "Kamrai Thai & Sushi",
      "lat": 40.809532,
      "lng": -77.818654,
      "category": "restaurant",
      "difficulty": "easy",
      "inPlay": true,
      "fameScore": 50,
      "clue": null,
      "photoUrl": null,
      "source": "overpass",
      "attribution": "OpenStreetMap ODbL"
    },
    {
      "id": "kitchen-garden",
      "name": "Kitchen Garden",
      "lat": 40.785766,
      "lng": -77.830158,
      "category": "restaurant",
      "difficulty": "medium",
      "inPlay": true,
      "fameScore": 35,
      "clue": null,
      "photoUrl": null,
      "source": "overpass",
      "attribution": "OpenStreetMap ODbL"
    },
    {
      "id": "kondu",
      "name": "Kondu",
      "lat": 40.79368,
      "lng": -77.860837,
      "category": "restaurant",
      "difficulty": "hard",
      "inPlay": true,
      "fameScore": 30,
      "clue": null,
      "photoUrl": null,
      "source": "overpass",
      "attribution": "OpenStreetMap ODbL"
    },
    {
      "id": "lederer-park",
      "name": "Lederer Park",
      "lat": 40.796074,
      "lng": -77.840554,
      "category": "park",
      "difficulty": "medium",
      "inPlay": true,
      "fameScore": 38,
      "clue": null,
      "photoUrl": null,
      "source": "overpass",
      "attribution": "OpenStreetMap ODbL"
    },
    {
      "id": "lion-shrine",
      "name": "Lion Shrine",
      "lat": 40.796805,
      "lng": -77.868936,
      "category": "attraction",
      "difficulty": "easy",
      "inPlay": true,
      "fameScore": 95,
      "clue": null,
      "photoUrl": null,
      "source": "overpass",
      "attribution": "OpenStreetMap ODbL; Wikidata CC0"
    },
    {
      "id": "lionne",
      "name": "Lionne",
      "lat": 40.79675,
      "lng": -77.871385,
      "category": "restaurant",
      "difficulty": "easy",
      "inPlay": true,
      "fameScore": 52,
      "clue": null,
      "photoUrl": null,
      "source": "overpass",
      "attribution": "OpenStreetMap ODbL"
    },
    {
      "id": "lions-den",
      "name": "Lion's Den",
      "lat": 40.797596,
      "lng": -77.856619,
      "category": "bar",
      "difficulty": "easy",
      "inPlay": true,
      "fameScore": 52,
      "clue": null,
      "photoUrl": null,
      "source": "overpass",
      "attribution": "OpenStreetMap ODbL"
    },
    {
      "id": "little-szechuan",
      "name": "Little Szechuan",
      "lat": 40.792713,
      "lng": -77.863297,
      "category": "restaurant",
      "difficulty": "easy",
      "inPlay": true,
      "fameScore": 55,
      "clue": null,
      "photoUrl": null,
      "source": "overpass",
      "attribution": "OpenStreetMap ODbL"
    },
    {
      "id": "local-whiskey",
      "name": "Local Whiskey",
      "lat": 40.793677,
      "lng": -77.860156,
      "category": "bar",
      "difficulty": "easy",
      "inPlay": true,
      "fameScore": 58,
      "clue": null,
      "photoUrl": null,
      "source": "overpass",
      "attribution": "OpenStreetMap ODbL"
    },
    {
      "id": "lt-michael-p-murphy-penn-state-veterans-plaza",
      "name": "Lt. Michael P. Murphy Penn State Veterans Plaza",
      "lat": 40.797333,
      "lng": -77.862884,
      "category": "landmark",
      "difficulty": "medium",
      "inPlay": true,
      "fameScore": 35,
      "clue": null,
      "photoUrl": null,
      "source": "overpass",
      "attribution": "OpenStreetMap ODbL"
    },
    {
      "id": "lubrano-park",
      "name": "Lubrano Park",
      "lat": 40.81235,
      "lng": -77.852386,
      "category": "venue",
      "difficulty": "easy",
      "inPlay": true,
      "fameScore": 55,
      "clue": null,
      "photoUrl": null,
      "source": "overpass",
      "attribution": "OpenStreetMap ODbL"
    },
    {
      "id": "lupitas-authentic-mexican-food",
      "name": "Lupita's Authentic Mexican Food",
      "lat": 40.791314,
      "lng": -77.862901,
      "category": "restaurant",
      "difficulty": "easy",
      "inPlay": true,
      "fameScore": 48,
      "clue": null,
      "photoUrl": null,
      "source": "overpass",
      "attribution": "OpenStreetMap ODbL"
    },
    {
      "id": "lychee",
      "name": "Lychee",
      "lat": 40.784947,
      "lng": -77.842887,
      "category": "restaurant",
      "difficulty": "medium",
      "inPlay": true,
      "fameScore": 38,
      "clue": null,
      "photoUrl": null,
      "source": "overpass",
      "attribution": "OpenStreetMap ODbL"
    },
    {
      "id": "maine-bay-berry-co",
      "name": "Maine Bay & Berry Co.",
      "lat": 40.810713,
      "lng": -77.828218,
      "category": "restaurant",
      "difficulty": "medium",
      "inPlay": true,
      "fameScore": 42,
      "clue": null,
      "photoUrl": null,
      "source": "overpass",
      "attribution": "OpenStreetMap ODbL"
    },
    {
      "id": "manna-korean-bbq-hot-pot",
      "name": "Manna Korean BBQ & Hot Pot",
      "lat": 40.781715,
      "lng": -77.853275,
      "category": "restaurant",
      "difficulty": "hard",
      "inPlay": true,
      "fameScore": 28,
      "clue": null,
      "photoUrl": null,
      "source": "overpass",
      "attribution": "OpenStreetMap ODbL"
    },
    {
      "id": "margaritas-pizzeria-and-italian-cuisine",
      "name": "Margarita's Pizzeria and Italian Cuisine",
      "lat": 40.792016,
      "lng": -77.862005,
      "category": "restaurant",
      "difficulty": "medium",
      "inPlay": true,
      "fameScore": 38,
      "clue": null,
      "photoUrl": null,
      "source": "overpass",
      "attribution": "OpenStreetMap ODbL"
    },
    {
      "id": "marjorie-mae-park",
      "name": "Marjorie Mae Park",
      "lat": 40.814138,
      "lng": -77.889011,
      "category": "park",
      "inPlay": false,
      "fameScore": 18,
      "clue": null,
      "photoUrl": null,
      "source": "overpass",
      "attribution": "OpenStreetMap ODbL"
    },
    {
      "id": "martin-luther-king-jr-memorial",
      "name": "Martin Luther King Jr. Memorial",
      "lat": 40.79266,
      "lng": -77.861598,
      "category": "landmark",
      "difficulty": "easy",
      "inPlay": true,
      "fameScore": 52,
      "clue": null,
      "photoUrl": null,
      "source": "overpass",
      "attribution": "OpenStreetMap ODbL"
    },
    {
      "id": "marzonis-brick-oven-brewing-co",
      "name": "Marzoni’s Brick Oven & Brewing Co.",
      "lat": 40.802774,
      "lng": -77.88128,
      "category": "restaurant",
      "difficulty": "medium",
      "inPlay": true,
      "fameScore": 44,
      "clue": null,
      "photoUrl": null,
      "source": "overpass",
      "attribution": "OpenStreetMap ODbL"
    },
    {
      "id": "masala-palace",
      "name": "Masala Palace",
      "lat": 40.793727,
      "lng": -77.85969,
      "category": "restaurant",
      "difficulty": "easy",
      "inPlay": true,
      "fameScore": 45,
      "clue": null,
      "photoUrl": null,
      "source": "overpass",
      "attribution": "OpenStreetMap ODbL"
    },
    {
      "id": "maxx-ramen",
      "name": "Maxx Ramen",
      "lat": 40.810513,
      "lng": -77.818671,
      "category": "restaurant",
      "difficulty": "medium",
      "inPlay": true,
      "fameScore": 30,
      "clue": null,
      "photoUrl": null,
      "source": "overpass",
      "attribution": "OpenStreetMap ODbL"
    },
    {
      "id": "medlar-field-at-lubrano-park",
      "name": "Medlar Field at Lubrano Park",
      "lat": 40.81235,
      "lng": -77.852233,
      "category": "venue",
      "difficulty": "easy",
      "inPlay": true,
      "fameScore": 68,
      "clue": null,
      "photoUrl": null,
      "source": "overpass",
      "attribution": "OpenStreetMap ODbL; Wikidata CC0"
    },
    {
      "id": "mercato-mio",
      "name": "Mercato Mio",
      "lat": 40.809078,
      "lng": -77.835196,
      "category": "restaurant",
      "difficulty": "medium",
      "inPlay": true,
      "fameScore": 32,
      "clue": null,
      "photoUrl": null,
      "source": "overpass",
      "attribution": "OpenStreetMap ODbL"
    },
    {
      "id": "millbrook-marsh-nature-center",
      "name": "Millbrook Marsh Nature Center",
      "lat": 40.813224,
      "lng": -77.837962,
      "category": "attraction",
      "difficulty": "easy",
      "inPlay": true,
      "fameScore": 55,
      "clue": null,
      "photoUrl": null,
      "source": "overpass",
      "attribution": "OpenStreetMap ODbL"
    },
    {
      "id": "momotaro",
      "name": "Momotaro",
      "lat": 40.792845,
      "lng": -77.863122,
      "category": "cafe",
      "difficulty": "medium",
      "inPlay": true,
      "fameScore": 40,
      "clue": null,
      "photoUrl": null,
      "source": "overpass",
      "attribution": "OpenStreetMap ODbL"
    },
    {
      "id": "monte-carlos-pizza-wings",
      "name": "Monte Carlo's Pizza & Wings",
      "lat": 40.789545,
      "lng": -77.867889,
      "category": "restaurant",
      "difficulty": "medium",
      "inPlay": true,
      "fameScore": 33,
      "clue": null,
      "photoUrl": null,
      "source": "overpass",
      "attribution": "OpenStreetMap ODbL"
    },
    {
      "id": "mosul-grill",
      "name": "Mosul Grill",
      "lat": 40.798291,
      "lng": -77.856127,
      "category": "restaurant",
      "difficulty": "medium",
      "inPlay": true,
      "fameScore": 30,
      "clue": null,
      "photoUrl": null,
      "source": "overpass",
      "attribution": "OpenStreetMap ODbL"
    },
    {
      "id": "mountainside-park",
      "name": "Mountainside Park",
      "lat": 40.812969,
      "lng": -77.812526,
      "category": "park",
      "inPlay": false,
      "fameScore": 20,
      "clue": null,
      "photoUrl": null,
      "source": "overpass",
      "attribution": "OpenStreetMap ODbL"
    },
    {
      "id": "nittany-lion-softball-park",
      "name": "Nittany Lion Softball Park",
      "lat": 40.808238,
      "lng": -77.861309,
      "category": "venue",
      "difficulty": "easy",
      "inPlay": true,
      "fameScore": 55,
      "clue": null,
      "photoUrl": null,
      "source": "overpass",
      "attribution": "OpenStreetMap ODbL"
    },
    {
      "id": "nittany-orchard-park",
      "name": "Nittany Orchard Park",
      "lat": 40.806286,
      "lng": -77.814883,
      "category": "park",
      "inPlay": false,
      "fameScore": 22,
      "clue": null,
      "photoUrl": null,
      "source": "overpass",
      "attribution": "OpenStreetMap ODbL"
    },
    {
      "id": "nittany-village-park",
      "name": "Nittany Village Park",
      "lat": 40.783657,
      "lng": -77.844098,
      "category": "park",
      "inPlay": false,
      "fameScore": 22,
      "clue": null,
      "photoUrl": null,
      "source": "overpass",
      "attribution": "OpenStreetMap ODbL"
    },
    {
      "id": "oak-grove-park",
      "name": "Oak Grove Park",
      "lat": 40.799117,
      "lng": -77.82338,
      "category": "park",
      "inPlay": false,
      "fameScore": 20,
      "clue": null,
      "photoUrl": null,
      "source": "overpass",
      "attribution": "OpenStreetMap ODbL"
    },
    {
      "id": "oakwood-park",
      "name": "Oakwood Park",
      "lat": 40.815874,
      "lng": -77.892681,
      "category": "park",
      "difficulty": "hard",
      "inPlay": true,
      "fameScore": 25,
      "clue": null,
      "photoUrl": null,
      "source": "overpass",
      "attribution": "OpenStreetMap ODbL"
    },
    {
      "id": "old-botany",
      "name": "Old Botany",
      "lat": 40.796737,
      "lng": -77.864047,
      "category": "landmark",
      "difficulty": "easy",
      "inPlay": true,
      "fameScore": 62,
      "clue": null,
      "photoUrl": null,
      "source": "overpass",
      "attribution": "OpenStreetMap ODbL"
    },
    {
      "id": "old-main",
      "name": "Old Main",
      "lat": 40.796943,
      "lng": -77.863445,
      "category": "landmark",
      "difficulty": "easy",
      "inPlay": true,
      "fameScore": 95,
      "clue": null,
      "photoUrl": null,
      "source": "overpass",
      "attribution": "OpenStreetMap ODbL"
    },
    {
      "id": "oliv-hetzel",
      "name": "ōLiv Hetzel",
      "lat": 40.798974,
      "lng": -77.854911,
      "category": "cafe",
      "inPlay": false,
      "fameScore": 15,
      "clue": null,
      "photoUrl": null,
      "source": "overpass",
      "attribution": "OpenStreetMap ODbL"
    },
    {
      "id": "orchard-park",
      "name": "Orchard Park",
      "lat": 40.775638,
      "lng": -77.862604,
      "category": "park",
      "difficulty": "medium",
      "inPlay": true,
      "fameScore": 38,
      "clue": null,
      "photoUrl": null,
      "source": "overpass",
      "attribution": "OpenStreetMap ODbL"
    },
    {
      "id": "original-waffle-shop",
      "name": "Original Waffle Shop",
      "lat": 40.803404,
      "lng": -77.883066,
      "category": "restaurant",
      "difficulty": "easy",
      "inPlay": true,
      "fameScore": 68,
      "clue": null,
      "photoUrl": null,
      "source": "overpass",
      "attribution": "OpenStreetMap ODbL"
    },
    {
      "id": "osaka",
      "name": "Osaka",
      "lat": 40.798823,
      "lng": -77.855596,
      "category": "restaurant",
      "difficulty": "medium",
      "inPlay": true,
      "fameScore": 40,
      "clue": null,
      "photoUrl": null,
      "source": "overpass",
      "attribution": "OpenStreetMap ODbL"
    },
    {
      "id": "palmer-museum-at-the-arboretum",
      "name": "Palmer Museum at the Arboretum",
      "lat": 40.806718,
      "lng": -77.868044,
      "category": "museum",
      "difficulty": "easy",
      "inPlay": true,
      "fameScore": 72,
      "clue": null,
      "photoUrl": null,
      "source": "overpass",
      "attribution": "OpenStreetMap ODbL"
    },
    {
      "id": "panzer-stadium",
      "name": "Panzer Stadium",
      "lat": 40.807332,
      "lng": -77.853523,
      "category": "venue",
      "difficulty": "medium",
      "inPlay": true,
      "fameScore": 38,
      "clue": null,
      "photoUrl": null,
      "source": "overpass",
      "attribution": "OpenStreetMap ODbL"
    },
    {
      "id": "park-ave-lower-intramural-fields",
      "name": "Park Ave Lower Intramural Fields",
      "lat": 40.809196,
      "lng": -77.863454,
      "category": "park",
      "difficulty": "hard",
      "inPlay": true,
      "fameScore": 30,
      "clue": null,
      "photoUrl": null,
      "source": "overpass",
      "attribution": "OpenStreetMap ODbL"
    },
    {
      "id": "park-hills-park",
      "name": "Park Hills Park",
      "lat": 40.795739,
      "lng": -77.899373,
      "category": "park",
      "inPlay": false,
      "fameScore": 18,
      "clue": null,
      "photoUrl": null,
      "source": "overpass",
      "attribution": "OpenStreetMap ODbL"
    },
    {
      "id": "patterson-gallery",
      "name": "Patterson Gallery",
      "lat": 40.800364,
      "lng": -77.864926,
      "category": "museum",
      "inPlay": false,
      "fameScore": 18,
      "clue": null,
      "photoUrl": null,
      "source": "overpass",
      "attribution": "OpenStreetMap ODbL"
    },
    {
      "id": "penang",
      "name": "Penang",
      "lat": 40.802971,
      "lng": -77.882041,
      "category": "restaurant",
      "difficulty": "easy",
      "inPlay": true,
      "fameScore": 48,
      "clue": null,
      "photoUrl": null,
      "source": "overpass",
      "attribution": "OpenStreetMap ODbL"
    },
    {
      "id": "penn-kebab",
      "name": "Penn Kebab",
      "lat": 40.798107,
      "lng": -77.856481,
      "category": "restaurant",
      "difficulty": "medium",
      "inPlay": true,
      "fameScore": 35,
      "clue": null,
      "photoUrl": null,
      "source": "overpass",
      "attribution": "OpenStreetMap ODbL"
    },
    {
      "id": "penn-state-all-sports-museum",
      "name": "Penn State All-Sports Museum",
      "lat": 40.81105,
      "lng": -77.8555,
      "category": "museum",
      "difficulty": "easy",
      "inPlay": true,
      "fameScore": 62,
      "clue": null,
      "photoUrl": null,
      "source": "overpass",
      "attribution": "OpenStreetMap ODbL"
    },
    {
      "id": "penn-state-community-garden-pollinator-garden",
      "name": "Penn State Community Garden Pollinator Garden",
      "lat": 40.810403,
      "lng": -77.848299,
      "category": "park",
      "inPlay": false,
      "fameScore": 15,
      "clue": null,
      "photoUrl": null,
      "source": "overpass",
      "attribution": "OpenStreetMap ODbL"
    },
    {
      "id": "penn-steaks",
      "name": "Penn Steaks",
      "lat": 40.795046,
      "lng": -77.859928,
      "category": "restaurant",
      "difficulty": "hard",
      "inPlay": true,
      "fameScore": 28,
      "clue": null,
      "photoUrl": null,
      "source": "overpass",
      "attribution": "OpenStreetMap ODbL"
    },
    {
      "id": "pennsylvania-agricultural-college-pac-herbarium",
      "name": "Pennsylvania Agricultural College (PAC) Herbarium",
      "lat": 40.798907,
      "lng": -77.86367,
      "category": "museum",
      "inPlay": false,
      "fameScore": 20,
      "clue": null,
      "photoUrl": null,
      "source": "overpass",
      "attribution": "OpenStreetMap ODbL"
    },
    {
      "id": "pennsylvania-state-golf-courses",
      "name": "Pennsylvania State Golf Courses",
      "lat": 40.789041,
      "lng": -77.880285,
      "category": "golf_course",
      "difficulty": "easy",
      "inPlay": true,
      "fameScore": 55,
      "clue": null,
      "photoUrl": null,
      "source": "overpass",
      "attribution": "OpenStreetMap ODbL; Wikidata CC0"
    },
    {
      "id": "pho-11",
      "name": "Pho 11",
      "lat": 40.792287,
      "lng": -77.866987,
      "category": "restaurant",
      "difficulty": "medium",
      "inPlay": true,
      "fameScore": 42,
      "clue": null,
      "photoUrl": null,
      "source": "overpass",
      "attribution": "OpenStreetMap ODbL"
    },
    {
      "id": "phyrst",
      "name": "Phyrst",
      "lat": 40.793749,
      "lng": -77.860064,
      "category": "bar",
      "difficulty": "easy",
      "inPlay": true,
      "fameScore": 72,
      "clue": null,
      "photoUrl": null,
      "source": "overpass",
      "attribution": "OpenStreetMap ODbL"
    },
    {
      "id": "pilato-studios",
      "name": "Pilato Studios",
      "lat": 40.796742,
      "lng": -77.857702,
      "category": "museum",
      "difficulty": "hard",
      "inPlay": true,
      "fameScore": 30,
      "clue": null,
      "photoUrl": null,
      "source": "overpass",
      "attribution": "OpenStreetMap ODbL"
    },
    {
      "id": "pita-cabana",
      "name": "Pita Cabana",
      "lat": 40.796841,
      "lng": -77.857243,
      "category": "restaurant",
      "difficulty": "medium",
      "inPlay": true,
      "fameScore": 44,
      "clue": null,
      "photoUrl": null,
      "source": "overpass",
      "attribution": "OpenStreetMap ODbL"
    },
    {
      "id": "poindexter",
      "name": "Poindexter",
      "lat": 40.791523,
      "lng": -77.864236,
      "category": "cafe",
      "difficulty": "hard",
      "inPlay": true,
      "fameScore": 28,
      "clue": null,
      "photoUrl": null,
      "source": "overpass",
      "attribution": "OpenStreetMap ODbL"
    },
    {
      "id": "pollinator-garden",
      "name": "Pollinator Garden",
      "lat": 40.812596,
      "lng": -77.837343,
      "category": "park",
      "difficulty": "hard",
      "inPlay": true,
      "fameScore": 28,
      "clue": null,
      "photoUrl": null,
      "source": "overpass",
      "attribution": "OpenStreetMap ODbL"
    },
    {
      "id": "pure-food-laws",
      "name": "Pure Food Laws",
      "lat": 40.799547,
      "lng": -77.864086,
      "category": "landmark",
      "inPlay": false,
      "fameScore": 18,
      "clue": null,
      "photoUrl": null,
      "source": "overpass",
      "attribution": "OpenStreetMap ODbL"
    },
    {
      "id": "ramyun-studio",
      "name": "Ramyun Studio",
      "lat": 40.795147,
      "lng": -77.859493,
      "category": "restaurant",
      "difficulty": "medium",
      "inPlay": true,
      "fameScore": 32,
      "clue": null,
      "photoUrl": null,
      "source": "overpass",
      "attribution": "OpenStreetMap ODbL"
    },
    {
      "id": "robeson-gallery",
      "name": "Robeson Gallery",
      "lat": 40.798117,
      "lng": -77.861375,
      "category": "museum",
      "difficulty": "medium",
      "inPlay": true,
      "fameScore": 45,
      "clue": null,
      "photoUrl": null,
      "source": "overpass",
      "attribution": "OpenStreetMap ODbL"
    },
    {
      "id": "roots-natural-kitchen",
      "name": "Roots Natural Kitchen",
      "lat": 40.795423,
      "lng": -77.857406,
      "category": "restaurant",
      "difficulty": "medium",
      "inPlay": true,
      "fameScore": 38,
      "clue": null,
      "photoUrl": null,
      "source": "overpass",
      "attribution": "OpenStreetMap ODbL"
    },
    {
      "id": "rothrock-coffee",
      "name": "Rothrock Coffee",
      "lat": 40.784399,
      "lng": -77.834546,
      "category": "cafe",
      "difficulty": "easy",
      "inPlay": true,
      "fameScore": 52,
      "clue": null,
      "photoUrl": null,
      "source": "overpass",
      "attribution": "OpenStreetMap ODbL"
    },
    {
      "id": "sakura-asian-restaurant",
      "name": "Sakura Asian Restaurant",
      "lat": 40.785575,
      "lng": -77.837757,
      "category": "restaurant",
      "difficulty": "easy",
      "inPlay": true,
      "fameScore": 46,
      "clue": null,
      "photoUrl": null,
      "source": "overpass",
      "attribution": "OpenStreetMap ODbL"
    },
    {
      "id": "sauly-boys",
      "name": "Sauly Boy's",
      "lat": 40.793813,
      "lng": -77.861032,
      "category": "restaurant",
      "difficulty": "medium",
      "inPlay": true,
      "fameScore": 35,
      "clue": null,
      "photoUrl": null,
      "source": "overpass",
      "attribution": "OpenStreetMap ODbL"
    },
    {
      "id": "schreyer-garden",
      "name": "Schreyer Garden",
      "lat": 40.797345,
      "lng": -77.859401,
      "category": "park",
      "inPlay": false,
      "fameScore": 12,
      "clue": null,
      "photoUrl": null,
      "source": "overpass",
      "attribution": "OpenStreetMap ODbL"
    },
    {
      "id": "science-technology-and-society",
      "name": "Science Technology and Society",
      "lat": 40.796927,
      "lng": -77.863955,
      "category": "landmark",
      "inPlay": false,
      "fameScore": 15,
      "clue": null,
      "photoUrl": null,
      "source": "overpass",
      "attribution": "OpenStreetMap ODbL"
    },
    {
      "id": "sculpture-garden",
      "name": "Sculpture Garden",
      "lat": 40.800294,
      "lng": -77.866013,
      "category": "park",
      "difficulty": "hard",
      "inPlay": true,
      "fameScore": 25,
      "clue": null,
      "photoUrl": null,
      "source": "overpass",
      "attribution": "OpenStreetMap ODbL"
    },
    {
      "id": "shamrock-park",
      "name": "Shamrock Park",
      "lat": 40.798531,
      "lng": -77.833973,
      "category": "park",
      "inPlay": false,
      "fameScore": 18,
      "clue": null,
      "photoUrl": null,
      "source": "overpass",
      "attribution": "OpenStreetMap ODbL"
    },
    {
      "id": "sharkies-bar",
      "name": "Sharkies Bar",
      "lat": 40.798143,
      "lng": -77.855915,
      "category": "bar",
      "difficulty": "medium",
      "inPlay": true,
      "fameScore": 44,
      "clue": null,
      "photoUrl": null,
      "source": "overpass",
      "attribution": "OpenStreetMap ODbL"
    },
    {
      "id": "sher-halal-gyro",
      "name": "Sher Halal Gyro",
      "lat": 40.794383,
      "lng": -77.859437,
      "category": "restaurant",
      "difficulty": "medium",
      "inPlay": true,
      "fameScore": 42,
      "clue": null,
      "photoUrl": null,
      "source": "overpass",
      "attribution": "OpenStreetMap ODbL"
    },
    {
      "id": "sher-hot-chicken",
      "name": "Sher Hot Chicken",
      "lat": 40.793713,
      "lng": -77.860498,
      "category": "restaurant",
      "difficulty": "hard",
      "inPlay": true,
      "fameScore": 30,
      "clue": null,
      "photoUrl": null,
      "source": "overpass",
      "attribution": "OpenStreetMap ODbL"
    },
    {
      "id": "sichuan-house",
      "name": "Sichuan House",
      "lat": 40.793659,
      "lng": -77.860425,
      "category": "restaurant",
      "difficulty": "medium",
      "inPlay": true,
      "fameScore": 34,
      "clue": null,
      "photoUrl": null,
      "source": "overpass",
      "attribution": "OpenStreetMap ODbL"
    },
    {
      "id": "sidney-friedman-park",
      "name": "Sidney Friedman Park",
      "lat": 40.791727,
      "lng": -77.859848,
      "category": "park",
      "difficulty": "medium",
      "inPlay": true,
      "fameScore": 42,
      "clue": null,
      "photoUrl": null,
      "source": "overpass",
      "attribution": "OpenStreetMap ODbL"
    },
    {
      "id": "sip-and-slurp",
      "name": "Sip and Slurp",
      "lat": 40.798292,
      "lng": -77.856269,
      "category": "restaurant",
      "difficulty": "medium",
      "inPlay": true,
      "fameScore": 30,
      "clue": null,
      "photoUrl": null,
      "source": "overpass",
      "attribution": "OpenStreetMap ODbL"
    },
    {
      "id": "sizzling-bites",
      "name": "Sizzling Bites",
      "lat": 40.794768,
      "lng": -77.859526,
      "category": "restaurant",
      "difficulty": "hard",
      "inPlay": true,
      "fameScore": 22,
      "clue": null,
      "photoUrl": null,
      "source": "overpass",
      "attribution": "OpenStreetMap ODbL"
    },
    {
      "id": "slab-cabin-park",
      "name": "Slab Cabin Park",
      "lat": 40.807962,
      "lng": -77.827522,
      "category": "park",
      "difficulty": "easy",
      "inPlay": true,
      "fameScore": 55,
      "clue": null,
      "photoUrl": null,
      "source": "overpass",
      "attribution": "OpenStreetMap ODbL"
    },
    {
      "id": "smash-falafel",
      "name": "Smash Falafel",
      "lat": 40.796834,
      "lng": -77.857257,
      "category": "restaurant",
      "difficulty": "medium",
      "inPlay": true,
      "fameScore": 38,
      "clue": null,
      "photoUrl": null,
      "source": "overpass",
      "attribution": "OpenStreetMap ODbL"
    },
    {
      "id": "smithfield-park",
      "name": "Smithfield Park",
      "lat": 40.791158,
      "lng": -77.842879,
      "category": "park",
      "inPlay": false,
      "fameScore": 18,
      "clue": null,
      "photoUrl": null,
      "source": "overpass",
      "attribution": "OpenStreetMap ODbL"
    },
    {
      "id": "snap-custom-pizza",
      "name": "Snap Custom Pizza",
      "lat": 40.793643,
      "lng": -77.86242,
      "category": "restaurant",
      "difficulty": "medium",
      "inPlay": true,
      "fameScore": 42,
      "clue": null,
      "photoUrl": null,
      "source": "overpass",
      "attribution": "OpenStreetMap ODbL"
    },
    {
      "id": "songbird-sanctuary-park",
      "name": "Songbird Sanctuary Park",
      "lat": 40.778715,
      "lng": -77.877433,
      "category": "park",
      "inPlay": false,
      "fameScore": 20,
      "clue": null,
      "photoUrl": null,
      "source": "overpass",
      "attribution": "OpenStreetMap ODbL"
    },
    {
      "id": "sora-teriyaki-sushi",
      "name": "Sora Teriyaki & Sushi",
      "lat": 40.799149,
      "lng": -77.854821,
      "category": "restaurant",
      "difficulty": "hard",
      "inPlay": true,
      "fameScore": 28,
      "clue": null,
      "photoUrl": null,
      "source": "overpass",
      "attribution": "OpenStreetMap ODbL"
    },
    {
      "id": "south-food-district",
      "name": "South Food District",
      "lat": 40.7995,
      "lng": -77.855831,
      "category": "restaurant",
      "difficulty": "easy",
      "inPlay": true,
      "fameScore": 55,
      "clue": null,
      "photoUrl": null,
      "source": "overpass",
      "attribution": "OpenStreetMap ODbL"
    },
    {
      "id": "south-hills-park",
      "name": "South Hills Park",
      "lat": 40.784237,
      "lng": -77.850017,
      "category": "park",
      "inPlay": false,
      "fameScore": 18,
      "clue": null,
      "photoUrl": null,
      "source": "overpass",
      "attribution": "OpenStreetMap ODbL"
    },
    {
      "id": "sowers-harvest-cafe",
      "name": "Sowers Harvest Cafe",
      "lat": 40.79732,
      "lng": -77.85556,
      "category": "cafe",
      "difficulty": "easy",
      "inPlay": true,
      "fameScore": 52,
      "clue": null,
      "photoUrl": null,
      "source": "overpass",
      "attribution": "OpenStreetMap ODbL"
    },
    {
      "id": "stage-west",
      "name": "Stage West",
      "lat": 40.798145,
      "lng": -77.856373,
      "category": "bar",
      "difficulty": "easy",
      "inPlay": true,
      "fameScore": 45,
      "clue": null,
      "photoUrl": null,
      "source": "overpass",
      "attribution": "OpenStreetMap ODbL"
    },
    {
      "id": "state-chikn",
      "name": "State Chik'n",
      "lat": 40.795814,
      "lng": -77.867331,
      "category": "restaurant",
      "difficulty": "medium",
      "inPlay": true,
      "fameScore": 32,
      "clue": null,
      "photoUrl": null,
      "source": "overpass",
      "attribution": "OpenStreetMap ODbL"
    },
    {
      "id": "state-theatre",
      "name": "State Theatre",
      "lat": 40.793744,
      "lng": -77.862286,
      "category": "venue",
      "difficulty": "easy",
      "inPlay": true,
      "fameScore": 82,
      "clue": null,
      "photoUrl": null,
      "source": "overpass",
      "attribution": "OpenStreetMap ODbL; Wikidata CC0"
    },
    {
      "id": "suburban-park",
      "name": "Suburban Park",
      "lat": 40.810623,
      "lng": -77.887297,
      "category": "park",
      "difficulty": "medium",
      "inPlay": true,
      "fameScore": 40,
      "clue": null,
      "photoUrl": null,
      "source": "overpass",
      "attribution": "OpenStreetMap ODbL"
    },
    {
      "id": "sunset-park",
      "name": "Sunset Park",
      "lat": 40.804149,
      "lng": -77.874978,
      "category": "park",
      "difficulty": "medium",
      "inPlay": true,
      "fameScore": 40,
      "clue": null,
      "photoUrl": null,
      "source": "overpass",
      "attribution": "OpenStreetMap ODbL"
    },
    {
      "id": "tadashi-japanese-restaurant",
      "name": "Tadashi Japanese Restaurant",
      "lat": 40.791554,
      "lng": -77.865163,
      "category": "restaurant",
      "difficulty": "easy",
      "inPlay": true,
      "fameScore": 55,
      "clue": null,
      "photoUrl": null,
      "source": "overpass",
      "attribution": "OpenStreetMap ODbL"
    },
    {
      "id": "tasty-k",
      "name": "Tasty K",
      "lat": 40.796829,
      "lng": -77.857602,
      "category": "restaurant",
      "difficulty": "medium",
      "inPlay": true,
      "fameScore": 38,
      "clue": null,
      "photoUrl": null,
      "source": "overpass",
      "attribution": "OpenStreetMap ODbL"
    },
    {
      "id": "teafe",
      "name": "Teafe",
      "lat": 40.810405,
      "lng": -77.895015,
      "category": "cafe",
      "difficulty": "medium",
      "inPlay": true,
      "fameScore": 35,
      "clue": null,
      "photoUrl": null,
      "source": "overpass",
      "attribution": "OpenStreetMap ODbL"
    },
    {
      "id": "the-arboretum-at-penn-state",
      "name": "The Arboretum at Penn State",
      "lat": 40.812165,
      "lng": -77.874898,
      "category": "park",
      "difficulty": "easy",
      "inPlay": true,
      "fameScore": 78,
      "clue": null,
      "photoUrl": null,
      "source": "overpass",
      "attribution": "OpenStreetMap ODbL; Wikidata CC0"
    },
    {
      "id": "the-arena-bar-grill",
      "name": "The Arena Bar & Grill",
      "lat": 40.805445,
      "lng": -77.891673,
      "category": "restaurant",
      "difficulty": "medium",
      "inPlay": true,
      "fameScore": 38,
      "clue": null,
      "photoUrl": null,
      "source": "overpass",
      "attribution": "OpenStreetMap ODbL"
    },
    {
      "id": "the-brewery",
      "name": "The Brewery",
      "lat": 40.794939,
      "lng": -77.858655,
      "category": "bar",
      "difficulty": "easy",
      "inPlay": true,
      "fameScore": 62,
      "clue": null,
      "photoUrl": null,
      "source": "overpass",
      "attribution": "OpenStreetMap ODbL"
    },
    {
      "id": "the-cheese-shoppe",
      "name": "The Cheese Shoppe",
      "lat": 40.795483,
      "lng": -77.85903,
      "category": "cafe",
      "difficulty": "easy",
      "inPlay": true,
      "fameScore": 65,
      "clue": null,
      "photoUrl": null,
      "source": "overpass",
      "attribution": "OpenStreetMap ODbL"
    },
    {
      "id": "the-corner-room",
      "name": "The Corner Room",
      "lat": 40.794279,
      "lng": -77.861613,
      "category": "restaurant",
      "difficulty": "easy",
      "inPlay": true,
      "fameScore": 82,
      "clue": null,
      "photoUrl": null,
      "source": "overpass",
      "attribution": "OpenStreetMap ODbL"
    },
    {
      "id": "the-cove-new-york-style-pizzeria",
      "name": "The Cove New York Style Pizzeria",
      "lat": 40.808874,
      "lng": -77.832973,
      "category": "restaurant",
      "difficulty": "hard",
      "inPlay": true,
      "fameScore": 28,
      "clue": null,
      "photoUrl": null,
      "source": "overpass",
      "attribution": "OpenStreetMap ODbL"
    },
    {
      "id": "the-frost-entomological-museum",
      "name": "The Frost Entomological Museum",
      "lat": 40.80296,
      "lng": -77.862405,
      "category": "museum",
      "difficulty": "medium",
      "inPlay": true,
      "fameScore": 42,
      "clue": null,
      "photoUrl": null,
      "source": "overpass",
      "attribution": "OpenStreetMap ODbL; Wikidata CC0"
    },
    {
      "id": "the-greek",
      "name": "The Greek",
      "lat": 40.804184,
      "lng": -77.882927,
      "category": "restaurant",
      "difficulty": "medium",
      "inPlay": true,
      "fameScore": 38,
      "clue": null,
      "photoUrl": null,
      "source": "overpass",
      "attribution": "OpenStreetMap ODbL"
    },
    {
      "id": "the-hub-gallery",
      "name": "The HUB Gallery",
      "lat": 40.798167,
      "lng": -77.861332,
      "category": "museum",
      "difficulty": "medium",
      "inPlay": true,
      "fameScore": 35,
      "clue": null,
      "photoUrl": null,
      "source": "overpass",
      "attribution": "OpenStreetMap ODbL"
    },
    {
      "id": "the-koop",
      "name": "The Koop",
      "lat": 40.796129,
      "lng": -77.857719,
      "category": "restaurant",
      "difficulty": "medium",
      "inPlay": true,
      "fameScore": 30,
      "clue": null,
      "photoUrl": null,
      "source": "overpass",
      "attribution": "OpenStreetMap ODbL"
    },
    {
      "id": "the-land-grant-frescoes",
      "name": "The Land-Grant Frescoes",
      "lat": 40.796457,
      "lng": -77.862819,
      "category": "museum",
      "difficulty": "easy",
      "inPlay": true,
      "fameScore": 48,
      "clue": null,
      "photoUrl": null,
      "source": "overpass",
      "attribution": "OpenStreetMap ODbL"
    },
    {
      "id": "the-lemont-village-green",
      "name": "The Lemont Village Green",
      "lat": 40.81109,
      "lng": -77.817193,
      "category": "park",
      "difficulty": "medium",
      "inPlay": true,
      "fameScore": 32,
      "clue": null,
      "photoUrl": null,
      "source": "overpass",
      "attribution": "OpenStreetMap ODbL"
    },
    {
      "id": "the-original-waffle-shop-west",
      "name": "The Original Waffle Shop West",
      "lat": 40.779582,
      "lng": -77.879472,
      "category": "restaurant",
      "difficulty": "easy",
      "inPlay": true,
      "fameScore": 68,
      "clue": null,
      "photoUrl": null,
      "source": "overpass",
      "attribution": "OpenStreetMap ODbL"
    },
    {
      "id": "the-press-cider-and-craft-beverage-tap-house",
      "name": "The Press Cider and Craft Beverage Tap House",
      "lat": 40.797304,
      "lng": -77.857317,
      "category": "bar",
      "difficulty": "hard",
      "inPlay": true,
      "fameScore": 22,
      "clue": null,
      "photoUrl": null,
      "source": "overpass",
      "attribution": "OpenStreetMap ODbL"
    },
    {
      "id": "the-shandygaff",
      "name": "The Shandygaff",
      "lat": 40.795325,
      "lng": -77.859564,
      "category": "bar",
      "difficulty": "easy",
      "inPlay": true,
      "fameScore": 62,
      "clue": null,
      "photoUrl": null,
      "source": "overpass",
      "attribution": "OpenStreetMap ODbL"
    },
    {
      "id": "the-tavern",
      "name": "The Tavern",
      "lat": 40.7955,
      "lng": -77.859605,
      "category": "restaurant",
      "difficulty": "easy",
      "inPlay": true,
      "fameScore": 78,
      "clue": null,
      "photoUrl": null,
      "source": "overpass",
      "attribution": "OpenStreetMap ODbL"
    },
    {
      "id": "the-waffle-shop",
      "name": "The Waffle Shop",
      "lat": 40.797708,
      "lng": -77.856932,
      "category": "restaurant",
      "difficulty": "easy",
      "inPlay": true,
      "fameScore": 68,
      "clue": null,
      "photoUrl": null,
      "source": "overpass",
      "attribution": "OpenStreetMap ODbL"
    },
    {
      "id": "thompson-woods-preserve",
      "name": "Thompson Woods Preserve",
      "lat": 40.804186,
      "lng": -77.83587,
      "category": "park",
      "difficulty": "medium",
      "inPlay": true,
      "fameScore": 38,
      "clue": null,
      "photoUrl": null,
      "source": "overpass",
      "attribution": "OpenStreetMap ODbL"
    },
    {
      "id": "toasted-bagel-cafe",
      "name": "Toasted Bagel Cafe",
      "lat": 40.783337,
      "lng": -77.852931,
      "category": "cafe",
      "difficulty": "hard",
      "inPlay": true,
      "fameScore": 25,
      "clue": null,
      "photoUrl": null,
      "source": "overpass",
      "attribution": "OpenStreetMap ODbL"
    },
    {
      "id": "tokyo-sushi-hibachi",
      "name": "Tokyo Sushi & Hibachi",
      "lat": 40.798183,
      "lng": -77.85632,
      "category": "restaurant",
      "difficulty": "hard",
      "inPlay": true,
      "fameScore": 28,
      "clue": null,
      "photoUrl": null,
      "source": "overpass",
      "attribution": "OpenStreetMap ODbL"
    },
    {
      "id": "tom-tudek-memorial-park",
      "name": "Tom Tudek Memorial Park",
      "lat": 40.800275,
      "lng": -77.893556,
      "category": "park",
      "difficulty": "easy",
      "inPlay": true,
      "fameScore": 62,
      "clue": null,
      "photoUrl": null,
      "source": "overpass",
      "attribution": "OpenStreetMap ODbL"
    },
    {
      "id": "tripletts",
      "name": "Triplett's",
      "lat": 40.796838,
      "lng": -77.87094,
      "category": "bar",
      "difficulty": "medium",
      "inPlay": true,
      "fameScore": 38,
      "clue": null,
      "photoUrl": null,
      "source": "overpass",
      "attribution": "OpenStreetMap ODbL"
    },
    {
      "id": "tudek-dog-park",
      "name": "Tudek Dog Park",
      "lat": 40.800328,
      "lng": -77.890828,
      "category": "park",
      "difficulty": "easy",
      "inPlay": true,
      "fameScore": 48,
      "clue": null,
      "photoUrl": null,
      "source": "overpass",
      "attribution": "OpenStreetMap ODbL"
    },
    {
      "id": "tudek-park-community-garden",
      "name": "Tudek Park Community Garden",
      "lat": 40.801698,
      "lng": -77.890941,
      "category": "park",
      "difficulty": "hard",
      "inPlay": true,
      "fameScore": 28,
      "clue": null,
      "photoUrl": null,
      "source": "overpass",
      "attribution": "OpenStreetMap ODbL"
    },
    {
      "id": "turfgrass-museum",
      "name": "Turfgrass Museum",
      "lat": 40.812145,
      "lng": -77.867259,
      "category": "museum",
      "inPlay": false,
      "fameScore": 12,
      "clue": null,
      "photoUrl": null,
      "source": "overpass",
      "attribution": "OpenStreetMap ODbL"
    },
    {
      "id": "tussey-view-park",
      "name": "Tussey View Park",
      "lat": 40.781975,
      "lng": -77.841898,
      "category": "park",
      "difficulty": "hard",
      "inPlay": true,
      "fameScore": 30,
      "clue": null,
      "photoUrl": null,
      "source": "overpass",
      "attribution": "OpenStreetMap ODbL"
    },
    {
      "id": "uncle-chens",
      "name": "Uncle Chens",
      "lat": 40.7976,
      "lng": -77.855157,
      "category": "restaurant",
      "difficulty": "easy",
      "inPlay": true,
      "fameScore": 55,
      "clue": null,
      "photoUrl": null,
      "source": "overpass",
      "attribution": "OpenStreetMap ODbL"
    },
    {
      "id": "uncle-chens-primetime",
      "name": "Uncle Chen's Primetime",
      "lat": 40.797571,
      "lng": -77.855194,
      "category": "restaurant",
      "difficulty": "hard",
      "inPlay": true,
      "fameScore": 28,
      "clue": null,
      "photoUrl": null,
      "source": "overpass",
      "attribution": "OpenStreetMap ODbL"
    },
    {
      "id": "underground-burgers-and-crepes",
      "name": "Underground Burgers and Crepes",
      "lat": 40.79527,
      "lng": -77.859336,
      "category": "restaurant",
      "difficulty": "medium",
      "inPlay": true,
      "fameScore": 40,
      "clue": null,
      "photoUrl": null,
      "source": "overpass",
      "attribution": "OpenStreetMap ODbL"
    },
    {
      "id": "upper-intramural-fields",
      "name": "Upper Intramural Fields",
      "lat": 40.809224,
      "lng": -77.865498,
      "category": "park",
      "difficulty": "hard",
      "inPlay": true,
      "fameScore": 28,
      "clue": null,
      "photoUrl": null,
      "source": "overpass",
      "attribution": "OpenStreetMap ODbL"
    },
    {
      "id": "vibe-coffee-co",
      "name": "Vibe Coffee Co.",
      "lat": 40.790776,
      "lng": -77.86407,
      "category": "cafe",
      "difficulty": "medium",
      "inPlay": true,
      "fameScore": 35,
      "clue": null,
      "photoUrl": null,
      "source": "overpass",
      "attribution": "OpenStreetMap ODbL"
    },
    {
      "id": "walnut-springs-park",
      "name": "Walnut Springs Park",
      "lat": 40.800368,
      "lng": -77.840709,
      "category": "park",
      "difficulty": "medium",
      "inPlay": true,
      "fameScore": 42,
      "clue": null,
      "photoUrl": null,
      "source": "overpass",
      "attribution": "OpenStreetMap ODbL"
    },
    {
      "id": "waring-square",
      "name": "Waring Square",
      "lat": 40.795775,
      "lng": -77.867494,
      "category": "restaurant",
      "difficulty": "medium",
      "inPlay": true,
      "fameScore": 42,
      "clue": null,
      "photoUrl": null,
      "source": "overpass",
      "attribution": "OpenStreetMap ODbL"
    },
    {
      "id": "websters-bookstore-cafe",
      "name": "Webster's Bookstore Cafe",
      "lat": 40.794071,
      "lng": -77.859641,
      "category": "cafe",
      "difficulty": "easy",
      "inPlay": true,
      "fameScore": 58,
      "clue": null,
      "photoUrl": null,
      "source": "overpass",
      "attribution": "OpenStreetMap ODbL"
    },
    {
      "id": "westerly-parkway-wetland-education-center",
      "name": "Westerly Parkway Wetland Education Center",
      "lat": 40.784065,
      "lng": -77.853461,
      "category": "park",
      "inPlay": false,
      "fameScore": 22,
      "clue": null,
      "photoUrl": null,
      "source": "overpass",
      "attribution": "OpenStreetMap ODbL"
    },
    {
      "id": "white-course",
      "name": "White Course",
      "lat": 40.790813,
      "lng": -77.878422,
      "category": "golf_course",
      "difficulty": "easy",
      "inPlay": true,
      "fameScore": 55,
      "clue": null,
      "photoUrl": null,
      "source": "overpass",
      "attribution": "OpenStreetMap ODbL"
    },
    {
      "id": "yallah-chicken-and-taco",
      "name": "Yallah Chicken and Taco",
      "lat": 40.808409,
      "lng": -77.896663,
      "category": "restaurant",
      "difficulty": "medium",
      "inPlay": true,
      "fameScore": 38,
      "clue": null,
      "photoUrl": null,
      "source": "overpass",
      "attribution": "OpenStreetMap ODbL"
    },
    {
      "id": "yallah-taco",
      "name": "Yallah Taco",
      "lat": 40.796782,
      "lng": -77.858071,
      "category": "restaurant",
      "difficulty": "easy",
      "inPlay": true,
      "fameScore": 52,
      "clue": null,
      "photoUrl": null,
      "source": "overpass",
      "attribution": "OpenStreetMap ODbL"
    },
    {
      "id": "yogurt-express",
      "name": "Yogürt Express",
      "lat": 40.79826,
      "lng": -77.856313,
      "category": "restaurant",
      "difficulty": "easy",
      "inPlay": true,
      "fameScore": 50,
      "clue": null,
      "photoUrl": null,
      "source": "overpass",
      "attribution": "OpenStreetMap ODbL"
    },
    {
      "id": "yummy-cafe",
      "name": "Yummy Cafe",
      "lat": 40.796659,
      "lng": -77.857508,
      "category": "restaurant",
      "difficulty": "medium",
      "inPlay": true,
      "fameScore": 35,
      "clue": null,
      "photoUrl": null,
      "source": "overpass",
      "attribution": "OpenStreetMap ODbL"
    },
    {
      "id": "zen-wings-things",
      "name": "Zen Wings & Things",
      "lat": 40.797525,
      "lng": -77.855076,
      "category": "restaurant",
      "difficulty": "medium",
      "inPlay": true,
      "fameScore": 32,
      "clue": null,
      "photoUrl": null,
      "source": "overpass",
      "attribution": "OpenStreetMap ODbL"
    },
    {
      "id": "zenos-pub",
      "name": "Zeno's Pub",
      "lat": 40.794215,
      "lng": -77.861528,
      "category": "bar",
      "difficulty": "easy",
      "inPlay": true,
      "fameScore": 72,
      "clue": null,
      "photoUrl": null,
      "source": "overpass",
      "attribution": "OpenStreetMap ODbL"
    }
  ]
}
