{
  "version": 1,
  "city": "State College, PA",
  "attribution": "Locations © OpenStreetMap contributors (ODbL) and Wikidata (CC0). Satellite imagery © Esri / Maxar.",
  "locations": [
    {
      "id": "103rd-engineers-memorial-fountain",
      "name": "103rd Engineers Memorial Fountain",
      "lat": 40.780785,
      "lng": -77.796304,
      "category": "landmark",
      "clue": null,
      "photoUrl": null,
      "source": "overpass",
      "attribution": "OpenStreetMap ODbL"
    },
    {
      "id": "103rd-medical-battalion-memorial",
      "name": "103rd Medical Battalion Memorial",
      "lat": 40.781135,
      "lng": -77.794074,
      "category": "landmark",
      "clue": null,
      "photoUrl": null,
      "source": "overpass",
      "attribution": "OpenStreetMap ODbL"
    },
    {
      "id": "107th-field-artillery-memorial",
      "name": "107th Field Artillery Memorial",
      "lat": 40.780932,
      "lng": -77.794768,
      "category": "landmark",
      "clue": null,
      "photoUrl": null,
      "source": "overpass",
      "attribution": "OpenStreetMap ODbL"
    },
    {
      "id": "108th-field-artillery-memorial",
      "name": "108th Field Artillery Memorial",
      "lat": 40.780786,
      "lng": -77.794175,
      "category": "landmark",
      "clue": null,
      "photoUrl": null,
      "source": "overpass",
      "attribution": "OpenStreetMap ODbL"
    },
    {
      "id": "108th-machine-gun-battalion-memorial",
      "name": "108th Machine Gun Battalion Memorial",
      "lat": 40.781052,
      "lng": -77.794033,
      "category": "landmark",
      "clue": null,
      "photoUrl": null,
      "source": "overpass",
      "attribution": "OpenStreetMap ODbL"
    },
    {
      "id": "109th-field-artillery-train-wreck-memorial",
      "name": "109th Field Artillery Train Wreck Memorial",
      "lat": 40.781096,
      "lng": -77.795695,
      "category": "landmark",
      "clue": null,
      "photoUrl": null,
      "source": "overpass",
      "attribution": "OpenStreetMap ODbL"
    },
    {
      "id": "109th-infantry-field-artillery-memorial",
      "name": "109th Infantry Field Artillery Memorial",
      "lat": 40.781324,
      "lng": -77.794084,
      "category": "landmark",
      "clue": null,
      "photoUrl": null,
      "source": "overpass",
      "attribution": "OpenStreetMap ODbL"
    },
    {
      "id": "109th-infantry-memorial",
      "name": "109th Infantry Memorial",
      "lat": 40.781153,
      "lng": -77.794936,
      "category": "landmark",
      "clue": null,
      "photoUrl": null,
      "source": "overpass",
      "attribution": "OpenStreetMap ODbL"
    },
    {
      "id": "109th-machine-gun-battalion",
      "name": "109th Machine Gun Battalion",
      "lat": 40.78098,
      "lng": -77.793995,
      "category": "landmark",
      "clue": null,
      "photoUrl": null,
      "source": "overpass",
      "attribution": "OpenStreetMap ODbL"
    },
    {
      "id": "110th-infantry-memorial",
      "name": "110th Infantry Memorial",
      "lat": 40.781137,
      "lng": -77.794649,
      "category": "landmark",
      "clue": null,
      "photoUrl": null,
      "source": "overpass",
      "attribution": "OpenStreetMap ODbL"
    },
    {
      "id": "111th-infantry-memorial",
      "name": "111th Infantry Memorial",
      "lat": 40.78088,
      "lng": -77.79418,
      "category": "landmark",
      "clue": null,
      "photoUrl": null,
      "source": "overpass",
      "attribution": "OpenStreetMap ODbL"
    },
    {
      "id": "112th-infantry-memorial",
      "name": "112th Infantry Memorial",
      "lat": 40.780726,
      "lng": -77.794004,
      "category": "landmark",
      "clue": null,
      "photoUrl": null,
      "source": "overpass",
      "attribution": "OpenStreetMap ODbL"
    },
    {
      "id": "112th-machine-gun-battalion-memorial",
      "name": "112th Machine Gun Battalion Memorial",
      "lat": 40.780149,
      "lng": -77.796614,
      "category": "landmark",
      "clue": null,
      "photoUrl": null,
      "source": "overpass",
      "attribution": "OpenStreetMap ODbL"
    },
    {
      "id": "1st-lieutenant-henry-lami-memorial",
      "name": "1st Lieutenant Henry Lami Memorial",
      "lat": 40.781216,
      "lng": -77.793926,
      "category": "landmark",
      "clue": null,
      "photoUrl": null,
      "source": "overpass",
      "attribution": "OpenStreetMap ODbL"
    },
    {
      "id": "28th-division-global-war-on-terror-monument",
      "name": "28th Division Global War on Terror Monument",
      "lat": 40.781268,
      "lng": -77.794997,
      "category": "landmark",
      "clue": null,
      "photoUrl": null,
      "source": "overpass",
      "attribution": "OpenStreetMap ODbL"
    },
    {
      "id": "28th-division-memorial",
      "name": "28th Division Memorial",
      "lat": 40.779455,
      "lng": -77.795223,
      "category": "landmark",
      "clue": null,
      "photoUrl": null,
      "source": "overpass",
      "attribution": "OpenStreetMap ODbL"
    },
    {
      "id": "28th-signal-battalion",
      "name": "28th Signal Battalion",
      "lat": 40.781147,
      "lng": -77.795297,
      "category": "landmark",
      "clue": null,
      "photoUrl": null,
      "source": "overpass",
      "attribution": "OpenStreetMap ODbL"
    },
    {
      "id": "2nd-brigade-combat-team-memorial",
      "name": "2nd Brigade Combat Team Memorial",
      "lat": 40.781138,
      "lng": -77.795496,
      "category": "landmark",
      "clue": null,
      "photoUrl": null,
      "source": "overpass",
      "attribution": "OpenStreetMap ODbL"
    },
    {
      "id": "3-dots",
      "name": "3 Dots",
      "lat": 40.794264,
      "lng": -77.859384,
      "category": "museum",
      "clue": null,
      "photoUrl": null,
      "source": "overpass",
      "attribution": "OpenStreetMap ODbL"
    },
    {
      "id": "45-howitzer",
      "name": "4.5\" Howitzer",
      "lat": 40.780906,
      "lng": -77.796481,
      "category": "attraction",
      "clue": null,
      "photoUrl": null,
      "source": "overpass",
      "attribution": "OpenStreetMap ODbL"
    },
    {
      "id": "7-brew",
      "name": "7 Brew",
      "lat": 40.785595,
      "lng": -77.833072,
      "category": "cafe",
      "clue": null,
      "photoUrl": null,
      "source": "overpass",
      "attribution": "OpenStreetMap ODbL"
    },
    {
      "id": "as-pub",
      "name": "A's Pub",
      "lat": 40.793884,
      "lng": -77.86115,
      "category": "bar",
      "clue": null,
      "photoUrl": null,
      "source": "overpass",
      "attribution": "OpenStreetMap ODbL"
    },
    {
      "id": "air-quality-learning-and-demonstration-center",
      "name": "Air Quality Learning and Demonstration Center",
      "lat": 40.811072,
      "lng": -77.877083,
      "category": "attraction",
      "clue": null,
      "photoUrl": null,
      "source": "overpass",
      "attribution": "OpenStreetMap ODbL"
    },
    {
      "id": "allen-street-grill",
      "name": "Allen Street Grill",
      "lat": 40.794226,
      "lng": -77.861651,
      "category": "restaurant",
      "clue": null,
      "photoUrl": null,
      "source": "overpass",
      "attribution": "OpenStreetMap ODbL"
    },
    {
      "id": "armsby-respiration-calorimeter-museum",
      "name": "Armsby Respiration Calorimeter Museum",
      "lat": 40.800415,
      "lng": -77.864556,
      "category": "museum",
      "clue": null,
      "photoUrl": null,
      "source": "overpass",
      "attribution": "OpenStreetMap ODbL"
    },
    {
      "id": "art-alley",
      "name": "Art Alley",
      "lat": 40.798208,
      "lng": -77.861292,
      "category": "museum",
      "clue": null,
      "photoUrl": null,
      "source": "overpass",
      "attribution": "OpenStreetMap ODbL"
    },
    {
      "id": "atherton",
      "name": "Atherton",
      "lat": 40.796669,
      "lng": -77.863846,
      "category": "landmark",
      "clue": null,
      "photoUrl": null,
      "source": "overpass",
      "attribution": "OpenStreetMap ODbL"
    },
    {
      "id": "bagel-crust-beaver",
      "name": "Bagel Crust - Beaver",
      "lat": 40.792168,
      "lng": -77.862213,
      "category": "cafe",
      "clue": null,
      "photoUrl": null,
      "source": "overpass",
      "attribution": "OpenStreetMap ODbL"
    },
    {
      "id": "big-bowl-noodle-house",
      "name": "Big Bowl Noodle House",
      "lat": 40.798065,
      "lng": -77.85654,
      "category": "restaurant",
      "clue": null,
      "photoUrl": null,
      "source": "overpass",
      "attribution": "OpenStreetMap ODbL"
    },
    {
      "id": "bill-pickles-tap-room",
      "name": "Bill Pickle's Tap Room",
      "lat": 40.794126,
      "lng": -77.861413,
      "category": "bar",
      "clue": null,
      "photoUrl": null,
      "source": "overpass",
      "attribution": "OpenStreetMap ODbL"
    },
    {
      "id": "boal-city-brewing",
      "name": "Boal City Brewing",
      "lat": 40.779369,
      "lng": -77.797219,
      "category": "bar",
      "clue": null,
      "photoUrl": null,
      "source": "overpass",
      "attribution": "OpenStreetMap ODbL"
    },
    {
      "id": "brothers-bar-grill",
      "name": "Brothers Bar & Grill",
      "lat": 40.793637,
      "lng": -77.860783,
      "category": "bar",
      "clue": null,
      "photoUrl": null,
      "source": "overpass",
      "attribution": "OpenStreetMap ODbL"
    },
    {
      "id": "brothers-pizza",
      "name": "Brothers Pizza",
      "lat": 40.787464,
      "lng": -77.856365,
      "category": "restaurant",
      "clue": null,
      "photoUrl": null,
      "source": "overpass",
      "attribution": "OpenStreetMap ODbL"
    },
    {
      "id": "brothers-pizza-itailian-restaurant",
      "name": "Brothers Pizza & Itailian Restaurant",
      "lat": 40.829093,
      "lng": -77.806395,
      "category": "restaurant",
      "clue": null,
      "photoUrl": null,
      "source": "overpass",
      "attribution": "OpenStreetMap ODbL"
    },
    {
      "id": "cafe-210-west",
      "name": "Cafe 210 West",
      "lat": 40.793177,
      "lng": -77.863004,
      "category": "bar",
      "clue": null,
      "photoUrl": null,
      "source": "overpass",
      "attribution": "OpenStreetMap ODbL"
    },
    {
      "id": "cafe-wow",
      "name": "Cafe Wow",
      "lat": 40.795944,
      "lng": -77.859076,
      "category": "cafe",
      "clue": null,
      "photoUrl": null,
      "source": "overpass",
      "attribution": "OpenStreetMap ODbL"
    },
    {
      "id": "champs-downtown",
      "name": "Champ's Downtown",
      "lat": 40.793754,
      "lng": -77.860549,
      "category": "bar",
      "clue": null,
      "photoUrl": null,
      "source": "overpass",
      "attribution": "OpenStreetMap ODbL"
    },
    {
      "id": "chew-chew-bun",
      "name": "Chew Chew Bun",
      "lat": 40.79382,
      "lng": -77.859971,
      "category": "cafe",
      "clue": null,
      "photoUrl": null,
      "source": "overpass",
      "attribution": "OpenStreetMap ODbL"
    },
    {
      "id": "chumleys",
      "name": "Chumley's",
      "lat": 40.794124,
      "lng": -77.861772,
      "category": "bar",
      "clue": null,
      "photoUrl": null,
      "source": "overpass",
      "attribution": "OpenStreetMap ODbL"
    },
    {
      "id": "cozy-thai",
      "name": "Cozy Thai",
      "lat": 40.7927,
      "lng": -77.859433,
      "category": "restaurant",
      "clue": null,
      "photoUrl": null,
      "source": "overpass",
      "attribution": "OpenStreetMap ODbL"
    },
    {
      "id": "dp-dough",
      "name": "D.P. Dough",
      "lat": 40.797099,
      "lng": -77.855848,
      "category": "restaurant",
      "clue": null,
      "photoUrl": null,
      "source": "overpass",
      "attribution": "OpenStreetMap ODbL"
    },
    {
      "id": "dagu-rice-noodle",
      "name": "Dagu Rice Noodle",
      "lat": 40.794992,
      "lng": -77.860626,
      "category": "restaurant",
      "clue": null,
      "photoUrl": null,
      "source": "overpass",
      "attribution": "OpenStreetMap ODbL"
    },
    {
      "id": "doggies-pub",
      "name": "Doggie's Pub",
      "lat": 40.795044,
      "lng": -77.860254,
      "category": "bar",
      "clue": null,
      "photoUrl": null,
      "source": "overpass",
      "attribution": "OpenStreetMap ODbL"
    },
    {
      "id": "fiddlehead",
      "name": "Fiddlehead",
      "lat": 40.793592,
      "lng": -77.862498,
      "category": "restaurant",
      "clue": null,
      "photoUrl": null,
      "source": "overpass",
      "attribution": "OpenStreetMap ODbL"
    },
    {
      "id": "giuseppes-pizzeria",
      "name": "Giuseppe's Pizzeria",
      "lat": 40.795356,
      "lng": -77.86016,
      "category": "restaurant",
      "clue": null,
      "photoUrl": null,
      "source": "overpass",
      "attribution": "OpenStreetMap ODbL"
    },
    {
      "id": "good-day-cafe",
      "name": "Good Day Cafe",
      "lat": 40.78678,
      "lng": -77.857337,
      "category": "cafe",
      "clue": null,
      "photoUrl": null,
      "source": "overpass",
      "attribution": "OpenStreetMap ODbL"
    },
    {
      "id": "india-pavilion",
      "name": "India Pavilion",
      "lat": 40.795415,
      "lng": -77.859132,
      "category": "restaurant",
      "clue": null,
      "photoUrl": null,
      "source": "overpass",
      "attribution": "OpenStreetMap ODbL"
    },
    {
      "id": "irvings-bagels",
      "name": "Irving's Bagels",
      "lat": 40.794556,
      "lng": -77.861226,
      "category": "cafe",
      "clue": null,
      "photoUrl": null,
      "source": "overpass",
      "attribution": "OpenStreetMap ODbL"
    },
    {
      "id": "jl-farm-cidery",
      "name": "J.L. Farm & Cidery",
      "lat": 40.751489,
      "lng": -77.855129,
      "category": "bar",
      "clue": null,
      "photoUrl": null,
      "source": "overpass",
      "attribution": "OpenStreetMap ODbL"
    },
    {
      "id": "kokoro",
      "name": "Kokoro",
      "lat": 40.797444,
      "lng": -77.856038,
      "category": "restaurant",
      "clue": null,
      "photoUrl": null,
      "source": "overpass",
      "attribution": "OpenStreetMap ODbL"
    },
    {
      "id": "legends-pub",
      "name": "Legends Pub",
      "lat": 40.831895,
      "lng": -77.844927,
      "category": "bar",
      "clue": null,
      "photoUrl": null,
      "source": "overpass",
      "attribution": "OpenStreetMap ODbL"
    },
    {
      "id": "lions-den",
      "name": "Lion's Den",
      "lat": 40.797596,
      "lng": -77.856619,
      "category": "bar",
      "clue": null,
      "photoUrl": null,
      "source": "overpass",
      "attribution": "OpenStreetMap ODbL"
    },
    {
      "id": "little-szechuan",
      "name": "Little Szechuan",
      "lat": 40.792713,
      "lng": -77.863297,
      "category": "restaurant",
      "clue": null,
      "photoUrl": null,
      "source": "overpass",
      "attribution": "OpenStreetMap ODbL"
    },
    {
      "id": "local-whiskey",
      "name": "Local Whiskey",
      "lat": 40.793677,
      "lng": -77.860156,
      "category": "bar",
      "clue": null,
      "photoUrl": null,
      "source": "overpass",
      "attribution": "OpenStreetMap ODbL"
    },
    {
      "id": "masala-palace",
      "name": "Masala Palace",
      "lat": 40.793727,
      "lng": -77.85969,
      "category": "restaurant",
      "clue": null,
      "photoUrl": null,
      "source": "overpass",
      "attribution": "OpenStreetMap ODbL"
    },
    {
      "id": "mr-wish",
      "name": "Mr. Wish",
      "lat": 40.796978,
      "lng": -77.858037,
      "category": "cafe",
      "clue": null,
      "photoUrl": null,
      "source": "overpass",
      "attribution": "OpenStreetMap ODbL"
    },
    {
      "id": "penn-kebab",
      "name": "Penn Kebab",
      "lat": 40.798107,
      "lng": -77.856481,
      "category": "restaurant",
      "clue": null,
      "photoUrl": null,
      "source": "overpass",
      "attribution": "OpenStreetMap ODbL"
    },
    {
      "id": "phyrst",
      "name": "Phyrst",
      "lat": 40.793749,
      "lng": -77.860064,
      "category": "bar",
      "clue": null,
      "photoUrl": null,
      "source": "overpass",
      "attribution": "OpenStreetMap ODbL"
    },
    {
      "id": "pita-cabana",
      "name": "Pita Cabana",
      "lat": 40.796841,
      "lng": -77.857243,
      "category": "restaurant",
      "clue": null,
      "photoUrl": null,
      "source": "overpass",
      "attribution": "OpenStreetMap ODbL"
    },
    {
      "id": "pump-station-cafe",
      "name": "Pump Station Cafe",
      "lat": 40.778863,
      "lng": -77.79277,
      "category": "cafe",
      "clue": null,
      "photoUrl": null,
      "source": "overpass",
      "attribution": "OpenStreetMap ODbL"
    },
    {
      "id": "rothrock-coffee",
      "name": "Rothrock Coffee",
      "lat": 40.784399,
      "lng": -77.834546,
      "category": "cafe",
      "clue": null,
      "photoUrl": null,
      "source": "overpass",
      "attribution": "OpenStreetMap ODbL"
    },
    {
      "id": "sharkies-bar",
      "name": "Sharkies Bar",
      "lat": 40.798143,
      "lng": -77.855915,
      "category": "bar",
      "clue": null,
      "photoUrl": null,
      "source": "overpass",
      "attribution": "OpenStreetMap ODbL"
    },
    {
      "id": "sichuan-house",
      "name": "Sichuan House",
      "lat": 40.793659,
      "lng": -77.860425,
      "category": "restaurant",
      "clue": null,
      "photoUrl": null,
      "source": "overpass",
      "attribution": "OpenStreetMap ODbL"
    },
    {
      "id": "smash-falafel",
      "name": "Smash Falafel",
      "lat": 40.796834,
      "lng": -77.857257,
      "category": "restaurant",
      "clue": null,
      "photoUrl": null,
      "source": "overpass",
      "attribution": "OpenStreetMap ODbL"
    },
    {
      "id": "snap-custom-pizza",
      "name": "Snap Custom Pizza",
      "lat": 40.793643,
      "lng": -77.86242,
      "category": "restaurant",
      "clue": null,
      "photoUrl": null,
      "source": "overpass",
      "attribution": "OpenStreetMap ODbL"
    },
    {
      "id": "stage-west",
      "name": "Stage West",
      "lat": 40.798145,
      "lng": -77.856373,
      "category": "bar",
      "clue": null,
      "photoUrl": null,
      "source": "overpass",
      "attribution": "OpenStreetMap ODbL"
    },
    {
      "id": "tadashi-japanese-restaurant",
      "name": "Tadashi Japanese Restaurant",
      "lat": 40.793309,
      "lng": -77.862889,
      "category": "restaurant",
      "clue": null,
      "photoUrl": null,
      "source": "overpass",
      "attribution": "OpenStreetMap ODbL"
    },
    {
      "id": "teafe",
      "name": "Teafe",
      "lat": 40.810405,
      "lng": -77.895015,
      "category": "cafe",
      "clue": null,
      "photoUrl": null,
      "source": "overpass",
      "attribution": "OpenStreetMap ODbL"
    },
    {
      "id": "the-cheese-shoppe",
      "name": "The Cheese Shoppe",
      "lat": 40.795483,
      "lng": -77.85903,
      "category": "cafe",
      "clue": null,
      "photoUrl": null,
      "source": "overpass",
      "attribution": "OpenStreetMap ODbL"
    },
    {
      "id": "the-corner-room",
      "name": "The Corner Room",
      "lat": 40.794279,
      "lng": -77.861613,
      "category": "restaurant",
      "clue": null,
      "photoUrl": null,
      "source": "overpass",
      "attribution": "OpenStreetMap ODbL"
    },
    {
      "id": "the-field-burger-tap",
      "name": "The Field Burger & Tap",
      "lat": 40.824292,
      "lng": -77.900491,
      "category": "restaurant",
      "clue": null,
      "photoUrl": null,
      "source": "overpass",
      "attribution": "OpenStreetMap ODbL"
    },
    {
      "id": "the-shandygaff",
      "name": "The Shandygaff",
      "lat": 40.795325,
      "lng": -77.859564,
      "category": "bar",
      "clue": null,
      "photoUrl": null,
      "source": "overpass",
      "attribution": "OpenStreetMap ODbL"
    },
    {
      "id": "the-whale-tea",
      "name": "The Whale Tea",
      "lat": 40.795359,
      "lng": -77.857493,
      "category": "cafe",
      "clue": null,
      "photoUrl": null,
      "source": "overpass",
      "attribution": "OpenStreetMap ODbL"
    },
    {
      "id": "toasted-bagel-cafe",
      "name": "Toasted Bagel Cafe",
      "lat": 40.783337,
      "lng": -77.852931,
      "category": "cafe",
      "clue": null,
      "photoUrl": null,
      "source": "overpass",
      "attribution": "OpenStreetMap ODbL"
    },
    {
      "id": "uncle-chens",
      "name": "Uncle Chens",
      "lat": 40.7976,
      "lng": -77.855157,
      "category": "restaurant",
      "clue": null,
      "photoUrl": null,
      "source": "overpass",
      "attribution": "OpenStreetMap ODbL"
    },
    {
      "id": "websters-bookstore-cafe",
      "name": "Webster's Bookstore Cafe",
      "lat": 40.794071,
      "lng": -77.859641,
      "category": "cafe",
      "clue": null,
      "photoUrl": null,
      "source": "overpass",
      "attribution": "OpenStreetMap ODbL"
    },
    {
      "id": "whiskers",
      "name": "Whiskers",
      "lat": 40.796838,
      "lng": -77.87094,
      "category": "bar",
      "clue": null,
      "photoUrl": null,
      "source": "overpass",
      "attribution": "OpenStreetMap ODbL"
    },
    {
      "id": "wings-over-happy-valley",
      "name": "Wings Over Happy Valley",
      "lat": 40.787354,
      "lng": -77.856512,
      "category": "restaurant",
      "clue": null,
      "photoUrl": null,
      "source": "overpass",
      "attribution": "OpenStreetMap ODbL"
    },
    {
      "id": "yummy-cafe",
      "name": "Yummy Cafe",
      "lat": 40.796659,
      "lng": -77.857508,
      "category": "restaurant",
      "clue": null,
      "photoUrl": null,
      "source": "overpass",
      "attribution": "OpenStreetMap ODbL"
    },
    {
      "id": "zenos-pub",
      "name": "Zeno's Pub",
      "lat": 40.794215,
      "lng": -77.861528,
      "category": "bar",
      "clue": null,
      "photoUrl": null,
      "source": "overpass",
      "attribution": "OpenStreetMap ODbL"
    }
  ]
}
