{
  "note": "Must-include entries merged into public/locations.stpete.json by build-city (not in OSM, or curated). Committed source — edit here, not the generated file.",
  "locations": [
    {
      "id": "3-daughters-brewing",
      "name": "3 Daughters Brewing",
      "lat": 27.769048,
      "lng": -82.662598,
      "category": "bar",
      "clue": "A large, popular craft brewery with a big taproom.",
      "photoUrl": null,
      "source": "manual",
      "attribution": "OpenStreetMap ODbL"
    },
    {
      "id": "albert-whitted-park",
      "name": "Albert Whitted Park",
      "lat": 27.7664909,
      "lng": -82.629542,
      "category": "park",
      "difficulty": "medium",
      "clue": "A waterfront park by Albert Whitted Airport at the south end of the downtown waterfront.",
      "photoUrl": null,
      "source": "manual",
      "attribution": "OpenStreetMap ODbL (geocoded via Nominatim)"
    },
    {
      "id": "azalea-park",
      "name": "Azalea Park",
      "lat": 27.7858082,
      "lng": -82.7392293,
      "category": "park",
      "difficulty": "medium",
      "clue": "A westside community park and recreation center near the Azalea neighborhood.",
      "photoUrl": null,
      "source": "manual",
      "attribution": "OpenStreetMap ODbL (geocoded via Nominatim)"
    },
    {
      "id": "bartlett-park",
      "name": "Bartlett Park",
      "lat": 27.7504367,
      "lng": -82.6404999,
      "category": "park",
      "difficulty": "hard",
      "clue": "A south-side neighborhood park with a historic pool and recreation center.",
      "photoUrl": null,
      "source": "manual",
      "attribution": "OpenStreetMap ODbL (geocoded via Nominatim)"
    },
    {
      "id": "clam-bayou-nature-preserve",
      "name": "Clam Bayou Nature Preserve",
      "lat": 27.7387692,
      "lng": -82.6903026,
      "category": "park",
      "difficulty": "hard",
      "clue": "A coastal mangrove preserve and paddling spot on the southwest edge of the city.",
      "photoUrl": null,
      "source": "manual",
      "attribution": "OpenStreetMap ODbL (geocoded via Nominatim)"
    },
    {
      "id": "crescent-lake-park",
      "name": "Crescent Lake Park",
      "lat": 27.7884526,
      "lng": -82.6413034,
      "category": "park",
      "difficulty": "medium",
      "clue": "A large lake-centered park north of downtown with a walking loop, ballfields, and the old Huggins-Stengel field.",
      "photoUrl": null,
      "source": "manual",
      "attribution": "OpenStreetMap ODbL (geocoded via Nominatim)"
    },
    {
      "id": "demens-landing-park",
      "name": "Demens Landing Park",
      "lat": 27.7706739,
      "lng": -82.6295843,
      "category": "park",
      "difficulty": "medium",
      "clue": "A downtown waterfront park and marina at the foot of 1st Ave S, named for the city’s railroad founder.",
      "photoUrl": null,
      "source": "manual",
      "attribution": "OpenStreetMap ODbL (geocoded via Nominatim)"
    },
    {
      "id": "fossil-park",
      "name": "Fossil Park",
      "lat": 27.8334822,
      "lng": -82.6454972,
      "category": "park",
      "difficulty": "hard",
      "clue": "A north St. Pete neighborhood park and recreation center off Dr. MLK Jr. St N.",
      "photoUrl": null,
      "source": "manual",
      "attribution": "OpenStreetMap ODbL (geocoded via Nominatim)"
    },
    {
      "id": "gizella-kopsick-palm-arboretum",
      "name": "Gizella Kopsick Palm Arboretum",
      "lat": 27.782663,
      "lng": -82.6259248,
      "category": "park",
      "difficulty": "medium",
      "clue": "A waterfront arboretum of palms and cycads next to North Shore Park.",
      "photoUrl": null,
      "source": "manual",
      "attribution": "OpenStreetMap ODbL (geocoded via Nominatim)"
    },
    {
      "id": "good-night-john-boy",
      "name": "Good Night John Boy",
      "lat": 27.771578,
      "lng": -82.635726,
      "category": "bar",
      "clue": "A downtown dance bar/nightlife spot.",
      "photoUrl": null,
      "source": "manual",
      "attribution": "OpenStreetMap Nominatim"
    },
    {
      "id": "kahunas",
      "name": "Kahuna's",
      "lat": 27.86703,
      "lng": -82.62853,
      "category": "bar",
      "clue": "A Gandy-area bar in north St. Pete.",
      "photoUrl": null,
      "source": "manual",
      "attribution": "OpenStreetMap ODbL"
    },
    {
      "id": "lake-maggiore",
      "name": "Lake Maggiore",
      "lat": 27.7355582,
      "lng": -82.6525332,
      "category": "park",
      "difficulty": "medium",
      "clue": "The city’s largest lake, on the south side next to Boyd Hill Nature Preserve.",
      "photoUrl": null,
      "source": "manual",
      "attribution": "OpenStreetMap ODbL (geocoded via Nominatim)"
    },
    {
      "id": "lake-vista-park",
      "name": "Lake Vista Park",
      "lat": 27.7133102,
      "lng": -82.6525362,
      "category": "park",
      "difficulty": "hard",
      "clue": "A southside community park around a small lake, with a pool and rec center.",
      "photoUrl": null,
      "source": "manual",
      "attribution": "OpenStreetMap ODbL (geocoded via Nominatim)"
    },
    {
      "id": "maximo-park",
      "name": "Maximo Park",
      "lat": 27.7111002,
      "lng": -82.6822738,
      "category": "park",
      "difficulty": "hard",
      "clue": "A waterfront park at the city’s southwest tip near the Skyway approach, with a boat ramp.",
      "photoUrl": null,
      "source": "manual",
      "attribution": "OpenStreetMap ODbL (geocoded via Nominatim)"
    },
    {
      "id": "mi-carreta-restaurant-and-bakery",
      "name": "Mi Carreta Restaurant and Bakery",
      "lat": 27.821556,
      "lng": -82.670566,
      "category": "restaurant",
      "clue": "Family-run Colombian and Latin American plates with a bakery counter of fresh pan and pastries (formerly La Carreta Bakery).",
      "photoUrl": null,
      "source": "manual",
      "attribution": "OpenStreetMap ODbL"
    },
    {
      "id": "mirror-lake",
      "name": "Mirror Lake",
      "lat": 27.7741062,
      "lng": -82.6423321,
      "category": "park",
      "difficulty": "medium",
      "clue": "A small lake just northwest of downtown that gives its name to the surrounding historic neighborhood and library.",
      "photoUrl": null,
      "source": "manual",
      "attribution": "OpenStreetMap ODbL (geocoded via Nominatim)"
    },
    {
      "id": "my-rich-uncle",
      "name": "My Rich Uncle",
      "lat": 27.771901,
      "lng": -82.636624,
      "category": "bar",
      "clue": "A downtown cocktail lounge.",
      "photoUrl": null,
      "source": "manual",
      "attribution": "OpenStreetMap Nominatim"
    },
    {
      "id": "north-shore-kickball-fields",
      "name": "North Shore Park Kickball Fields",
      "lat": 27.7857,
      "lng": -82.6265,
      "category": "park",
      "clue": "The open rec/kickball fields at North Shore Park.",
      "photoUrl": null,
      "source": "manual",
      "attribution": "Manual (approx.)"
    },
    {
      "id": "north-straub-park",
      "name": "North Straub Park",
      "lat": 27.776281,
      "lng": -82.6312195,
      "category": "park",
      "difficulty": "medium",
      "clue": "A downtown waterfront green along Bayshore Drive, just north of the museums.",
      "photoUrl": null,
      "source": "manual",
      "attribution": "OpenStreetMap ODbL (geocoded via Nominatim)"
    },
    {
      "id": "pioneer-park",
      "name": "Pioneer Park",
      "lat": 27.7707949,
      "lng": -82.6328281,
      "category": "park",
      "difficulty": "hard",
      "clue": "A small downtown park just west of the waterfront, near the Dalí Museum and Albert Whitted.",
      "photoUrl": null,
      "source": "manual",
      "attribution": "OpenStreetMap ODbL (geocoded via Nominatim)"
    },
    {
      "id": "rec-dec",
      "name": "Rec Dec",
      "lat": 27.8682622,
      "lng": -82.6330285,
      "category": "bar",
      "difficulty": "hard",
      "clue": "A Gandy-area sports bar and social athletic club with lighted volleyball courts, cornhole, and a kitchen.",
      "photoUrl": null,
      "source": "manual",
      "attribution": "OpenStreetMap ODbL (geocoded via Nominatim)"
    },
    {
      "id": "round-lake",
      "name": "Round Lake",
      "lat": 27.7791054,
      "lng": -82.639802,
      "category": "park",
      "difficulty": "hard",
      "clue": "A small historic lake and surrounding park in the Round Lake neighborhood.",
      "photoUrl": null,
      "source": "manual",
      "attribution": "OpenStreetMap ODbL (geocoded via Nominatim)"
    },
    {
      "id": "sawgrass-lake-park",
      "name": "Sawgrass Lake Park",
      "lat": 27.8413442,
      "lng": -82.6689052,
      "category": "park",
      "difficulty": "medium",
      "clue": "A north St. Pete nature park with a boardwalk through one of the area’s largest maple swamps.",
      "photoUrl": null,
      "source": "manual",
      "attribution": "OpenStreetMap ODbL (geocoded via Nominatim)"
    },
    {
      "id": "south-straub-park",
      "name": "South Straub Park",
      "lat": 27.7727126,
      "lng": -82.6324133,
      "category": "park",
      "difficulty": "medium",
      "clue": "A downtown waterfront green along Bayshore Drive, south of its sibling park.",
      "photoUrl": null,
      "source": "manual",
      "attribution": "OpenStreetMap ODbL (geocoded via Nominatim)"
    },
    {
      "id": "the-don-cesar",
      "name": "The Don CeSar",
      "lat": 27.7077,
      "lng": -82.7411,
      "category": "landmark",
      "clue": "The 'Pink Palace' — a historic 1928 resort hotel on the Gulf beach.",
      "photoUrl": null,
      "source": "manual",
      "attribution": "Wikidata CC0"
    },
    {
      "id": "welcome-to-the-farm",
      "name": "Welcome to the Farm",
      "lat": 27.771814,
      "lng": -82.636379,
      "category": "bar",
      "clue": "A downtown bar on 1st Ave N.",
      "photoUrl": null,
      "source": "manual",
      "attribution": "ParkWhiz (approx.)"
    },
    {
      "id": "williams-park",
      "name": "Williams Park",
      "lat": 27.772822,
      "lng": -82.6378037,
      "category": "park",
      "difficulty": "medium",
      "clue": "A historic downtown square — the city’s old central gathering park, ringed by churches and a bandshell.",
      "photoUrl": null,
      "source": "manual",
      "attribution": "OpenStreetMap ODbL (geocoded via Nominatim)"
    }
  ]
}
